[
{"name":"Place du 23 Janvier 1943", "city": "Marseille", "region":"Provence-Alpes-Côte d'Azur", "country":"France", "lat":43.297897, "lon":5.370330},
{"name":"Rue du 23 Janvier", "city": "Dijon", "region":"Bourgogne", "country":"France", "lat":47.328242, "lon":5.036658},
{"name":"Rue du 15 Janvier 1872", "city": "Sainte-Marie", "region":"Bretagne", "country":"France", "lat":47.695659, "lon":-2.004279},
{"name":"Rue du 29 Janvier 1944", "city": "Cognin-les-Gorges", "region":"Rhône-Alpes", "country":"France", "lat":45.171328, "lon":5.412120},
{"name":"Rue du 4 Janvier 1944", "city": "Saint-Martin-d'Hères", "region":"Rhône-Alpes", "country":"France", "lat":45.168896, "lon":5.776990},
{"name":"Rue du 21 Janvier", "city": "Dole", "region":"Franche-Comté", "country":"France", "lat":47.095660, "lon":5.494571},
{"name":"Impasse du 28 Janvier", "city": "Blois", "region":"Centre", "country":"France", "lat":47.579474, "lon":1.343127},
{"name":"Rue du 28 Janvier", "city": "Blois", "region":"Centre", "country":"France", "lat":47.579781, "lon":1.342950},
{"name":"Rue du 27 Janvier 1945", "city": "Châtillon-sur-Loire", "region":"Centre", "country":"France", "lat":47.591687, "lon":2.742436},
{"name":"Route du 31 Janvier 1852", "city": "La Sauvetat-sur-Lède", "region":"Aquitaine", "country":"France", "lat":44.469424, "lon":0.730426},
{"name":"Allée du 1Er Janvier 1974", "city": "Valanjou", "region":"Pays de la Loire", "country":"France", "lat":47.216045, "lon":-0.601207},
{"name":"Place du 22 Janvier 1794", "city": "La Poitevinière", "region":"Pays de la Loire", "country":"France", "lat":47.227493, "lon":-0.896613},
{"name":"Rue du Vingt Janvier 1944", "city": "Guilliers", "region":"Bretagne", "country":"France", "lat":48.043565, "lon":-2.405806},
{"name":"Rue du 20 Janvier 1944", "city": "Loyat", "region":"Bretagne", "country":"France", "lat":47.994254, "lon":-2.383074},
{"name":"Rue du 3 Janvier 1945", "city": "Achen", "region":"Lorraine", "country":"France", "lat":49.047814, "lon":7.184975},
{"name":"Rue du 4 Janvier 1944", "city": "Compiègne", "region":"Picardie", "country":"France", "lat":49.402655, "lon":2.806360},
{"name":"Rue du 26 Janvier 1950", "city": "Saint-Éloy-les-Mines", "region":"Auvergne", "country":"France", "lat":46.155989, "lon":2.826874},
{"name":"Rue du 25 Janvier", "city": "Illhaeusern", "region":"Alsace", "country":"France", "lat":48.184679, "lon":7.433945},
{"name":"Avenue du 20 Janvier", "city": "Lutterbach", "region":"Alsace", "country":"France", "lat":47.760708, "lon":7.290061},
{"name":"Rue du 20 Janvier", "city": "Mulhouse", "region":"Alsace", "country":"France", "lat":47.766939, "lon":7.325501},
{"name":"Rue du 20 Janvier", "city": "Pfastatt", "region":"Alsace", "country":"France", "lat":47.763794, "lon":7.316358},
{"name":"Rue du 22 Janvier", "city": "Reiningue", "region":"Alsace", "country":"France", "lat":47.753263, "lon":7.239470},
{"name":"Place du 28 Janvier 1945", "city": "Vieux-Thann", "region":"Alsace", "country":"France", "lat":47.801164, "lon":7.116842},
{"name":"Rue du 5 Janvier 1871", "city": "Velleguindry-et-Levrecey", "region":"Franche-Comté", "country":"France", "lat":47.545820, "lon":6.085035},
{"name":"Avenue Vingt Trois Janvier", "city": "Tournus", "region":"Bourgogne", "country":"France", "lat":46.559381, "lon":4.914543},
{"name":"Rue du 1er Janvier 1969", "city": "Viré", "region":"Bourgogne", "country":"France", "lat":46.447860, "lon":4.848342},
{"name":"Rue du 27 Janvier 1978", "city": "Verdun-sur-le-Doubs", "region":"Bourgogne", "country":"France", "lat":46.891975, "lon":5.024917},
{"name":"Rue du 21 Janvier", "city": "Louailles", "region":"Pays de la Loire", "country":"France", "lat":47.794025, "lon":-0.247813},
{"name":"Rue du 28 Janvier 1944", "city": "Saint-Jeoire", "region":"Rhône-Alpes", "country":"France", "lat":46.145821, "lon":6.465289},
{"name":"Lotissement Communal Janvier", "city": "Noirmoutier-en-l'Île", "region":"Pays de la Loire", "country":"France", "lat":47.022935, "lon":-2.293003},
{"name":"Rue du 19 Janvier", "city": "Garches", "region":"Île-de-France", "country":"France", "lat":48.851747, "lon":2.190085},
{"name":"Rue du 19 Janvier", "city": "Rueil-Malmaison", "region":"Île-de-France", "country":"France", "lat":48.858940, "lon":2.189874},
{"name":"Rue du 7 Février 44", "city": "Aranc", "region":"Rhône-Alpes", "country":"France", "lat":46.006543, "lon":5.509262},
{"name":"Rue du 10 Février", "city": "Jussy", "region":"Picardie", "country":"France", "lat":49.731925, "lon":3.248740},
{"name":"Rue du 10 Février", "city": "Montescourt-Lizerolles", "region":"Picardie", "country":"France", "lat":49.731925, "lon":3.248740},
{"name":"Rue du 25 Février 1944", "city": "Ménil-Annelles", "region":"Champagne-Ardenne", "country":"France", "lat":49.439165, "lon":4.445006},
{"name":"Rue du 1er Février 1814", "city": "La Rothière", "region":"Champagne-Ardenne", "country":"France", "lat":48.345072, "lon":4.558924},
{"name":"Rue du 24 Février 1848", "city": "Carcassonne", "region":"Languedoc-Roussillon", "country":"France", "lat":43.208391, "lon":2.349024},
{"name":"Impasse du 24 Février", "city": "Lézignan-Corbières", "region":"Languedoc-Roussillon", "country":"France", "lat":43.201323, "lon":2.757112},
{"name":"Rue du 24 Février", "city": "Lézignan-Corbières", "region":"Languedoc-Roussillon", "country":"France", "lat":43.201307, "lon":2.757524},
{"name":"Rue du 24 Février", "city": "Auch", "region":"Midi-Pyrénées", "country":"France", "lat":43.640655, "lon":0.593954},
{"name":"Rue du 24 Février", "city": "Lodève", "region":"Languedoc-Roussillon", "country":"France", "lat":43.732625, "lon":3.320842},
{"name":"Rue du 18 Février 1931", "city": "Valras-Plage", "region":"Languedoc-Roussillon", "country":"France", "lat":43.252830, "lon":3.286600},
{"name":"Rue du 14 Février", "city": "Saint-Valentin", "region":"Centre", "country":"France", "lat":46.951159, "lon":1.865552},
{"name":"Rue du 23 Février 1950", "city": "Saint-Pierre-des-Corps", "region":"Centre", "country":"France", "lat":47.395038, "lon":0.751584},
{"name":"Voie du 6 Février 1968", "city": "Autrans", "region":"Rhône-Alpes", "country":"France", "lat":45.172995, "lon":5.542109},
{"name":"Place du 8 Février 1962", "city": "Saint-Martin-d'Hères", "region":"Rhône-Alpes", "country":"France", "lat":45.184293, "lon":5.750864},
{"name":"Rue du 24 Février 1848", "city": "Nantes", "region":"Pays de la Loire", "country":"France", "lat":47.206739, "lon":-1.591279},
{"name":"Rue du 28 Février 1943", "city": "Saint-Nazaire", "region":"Pays de la Loire", "country":"France", "lat":47.274555, "lon":-2.207620},
{"name":"Impasse de Février 1586", "city": "Gignac", "region":"Midi-Pyrénées", "country":"France", "lat":45.004747, "lon":1.457397},
{"name":"Rue du 1er Février 1944", "city": "Feugarolles", "region":"Aquitaine", "country":"France", "lat":44.222010, "lon":0.346146},
{"name":"Rue du 25 Février 1965", "city": "Cousances-les-Forges", "region":"Lorraine", "country":"France", "lat":48.616375, "lon":5.080190},
{"name":"Rue du 23 Février 1950", "city": "Sainte-Anne-d'Auray", "region":"Bretagne", "country":"France", "lat":47.693481, "lon":-2.957671},
{"name":"Rue du 20 Février", "city": "Alsting", "region":"Lorraine", "country":"France", "lat":49.178082, "lon":7.005789},
{"name":"Rue du 23 Février", "city": "Erching", "region":"Lorraine", "country":"France", "lat":49.108213, "lon":7.269231},
{"name":"Rue du 18 Février", "city": "Etzling", "region":"Lorraine", "country":"France", "lat":49.177885, "lon":6.962145},
{"name":"Rue du 18 Février", "city": "Grosbliederstroff", "region":"Lorraine", "country":"France", "lat":49.160418, "lon":7.024940},
{"name":"Rue du 17 Février 1945", "city": "Kerbach", "region":"Lorraine", "country":"France", "lat":49.168418, "lon":6.969046},
{"name":"Rue du 2 Février 1965", "city": "Avion", "region":"Nord-Pas-de-Calais", "country":"France", "lat":50.400724, "lon":2.811736},
{"name":"Rue du 4 Février 1970", "city": "Fouquières-lès-Lens", "region":"Nord-Pas-de-Calais", "country":"France", "lat":50.425231, "lon":2.908470},
{"name":"Rue du Premier Février 1945", "city": "Artolsheim", "region":"Alsace", "country":"France", "lat":48.205424, "lon":7.575336},
{"name":"Rue du 2 Février", "city": "Saasenheim", "region":"Alsace", "country":"France", "lat":48.233933, "lon":7.616673},
{"name":"Rue du 2 Février", "city": "Wintzenheim", "region":"Alsace", "country":"France", "lat":48.070675, "lon":7.301812},
{"name":"Rue du 7 Février", "city": "Balgau", "region":"Alsace", "country":"France", "lat":47.930407, "lon":7.533681},
{"name":"Rue du 17 Février", "city": "Ballersdorf", "region":"Alsace", "country":"France", "lat":47.625057, "lon":7.160584},
{"name":"Rue du 2 Février 1945", "city": "Biesheim", "region":"Alsace", "country":"France", "lat":48.040922, "lon":7.546188},
{"name":"Rue du 8 Février", "city": "Blodelsheim", "region":"Alsace", "country":"France", "lat":47.887810, "lon":7.534753},
{"name":"Rue du 5 Février", "city": "Buhl", "region":"Alsace", "country":"France", "lat":47.926518, "lon":7.190594},
{"name":"Rue du 4 Février", "city": "Cernay", "region":"Alsace", "country":"France", "lat":47.801101, "lon":7.172585},
{"name":"Place du Deux Février", "city": "Colmar", "region":"Alsace", "country":"France", "lat":48.076454, "lon":7.360757},
{"name":"Rue du 6 Février", "city": "Dessenheim", "region":"Alsace", "country":"France", "lat":47.980667, "lon":7.482389},
{"name":"Rue du 29 Février", "city": "Durmenach", "region":"Alsace", "country":"France", "lat":47.528330, "lon":7.337137},
{"name":"Rue du 6 Février 1945", "city": "Ensisheim", "region":"Alsace", "country":"France", "lat":47.868978, "lon":7.348630},
{"name":"Rue du 8 Février", "city": "Geiswasser", "region":"Alsace", "country":"France", "lat":47.979718, "lon":7.595875},
{"name":"Rue du 4 Février", "city": "Guebwiller", "region":"Alsace", "country":"France", "lat":47.906073, "lon":7.215326},
{"name":"Rue du 7 Février", "city": "Heiteren", "region":"Alsace", "country":"France", "lat":47.969023, "lon":7.546397},
{"name":"Rue du 1er Février 1945", "city": "Horbourg-Wihr", "region":"Alsace", "country":"France", "lat":48.080687, "lon":7.394487},
{"name":"Rue du 2 Février", "city": "Ingersheim", "region":"Alsace", "country":"France", "lat":48.094472, "lon":7.309666},
{"name":"Rue du 4 Février", "city": "Issenheim", "region":"Alsace", "country":"France", "lat":47.905427, "lon":7.255964},
{"name":"Rue du 9 Février", "city": "Mœrnach", "region":"Alsace", "country":"France", "lat":47.503248, "lon":7.257744},
{"name":"Rue du 8 Février", "city": "Munchhouse", "region":"Alsace", "country":"France", "lat":47.870842, "lon":7.453000},
{"name":"Rue du 2 Février", "city": "Obersaasheim", "region":"Alsace", "country":"France", "lat":47.992523, "lon":7.555913},
{"name":"Rue du 3 Février", "city": "Pulversheim", "region":"Alsace", "country":"France", "lat":47.837574, "lon":7.294666},
{"name":"Rue du 5 Février", "city": "Réguisheim", "region":"Alsace", "country":"France", "lat":47.898390, "lon":7.348950},
{"name":"Rue du 7 Février", "city": "Roggenhouse", "region":"Alsace", "country":"France", "lat":47.889051, "lon":7.471862},
{"name":"Rue du 3 Février", "city": "Ruelisheim", "region":"Alsace", "country":"France", "lat":47.824642, "lon":7.353568},
{"name":"Rue du 6 Février", "city": "Rustenhart", "region":"Alsace", "country":"France", "lat":47.940578, "lon":7.463320},
{"name":"Rue du 9 Février", "city": "Rumersheim-le-Haut", "region":"Alsace", "country":"France", "lat":47.853251, "lon":7.521858},
{"name":"Place du 4 Février", "city": "Soultz-Haut-Rhin", "region":"Alsace", "country":"France", "lat":47.882785, "lon":7.225259},
{"name":"Rue du 4 Février", "city": "Staffelfelden", "region":"Alsace", "country":"France", "lat":47.830173, "lon":7.251624},
{"name":"Rue du 4 Février", "city": "Turckheim", "region":"Alsace", "country":"France", "lat":48.087263, "lon":7.280831},
{"name":"Rue du 5 Février", "city": "Ungersheim", "region":"Alsace", "country":"France", "lat":47.880048, "lon":7.303451},
{"name":"Rue du 5 Février", "city": "Walbach", "region":"Alsace", "country":"France", "lat":48.065028, "lon":7.222761},
{"name":"Rue du 3 Février", "city": "Wittelsheim", "region":"Alsace", "country":"France", "lat":47.807421, "lon":7.243003},
{"name":"Place du 1er Février 1945", "city": "Horbourg-Wihr", "region":"Alsace", "country":"France", "lat":48.080486, "lon":7.393608},
{"name":"Place du 6 Février", "city": "Weckolsheim", "region":"Alsace", "country":"France", "lat":48.003346, "lon":7.513138},
{"name":"Quai des Martyrs du 8 Février 1962", "city": "Givors", "region":"Rhône-Alpes", "country":"France", "lat":45.587241, "lon":4.772889},
{"name":"Rue du 24 Février 1848", "city": "Villeurbanne", "region":"Rhône-Alpes", "country":"France", "lat":45.762972, "lon":4.870790},
{"name":"Place du 20 Février 1944", "city": "Féternes", "region":"Rhône-Alpes", "country":"France", "lat":46.353855, "lon":6.563456},
{"name":"Grande Allée du 12 Février 1934", "city": "Noisiel", "region":"Île-de-France", "country":"France", "lat":48.842346, "lon":2.621346},
{"name":"Rue du Douze Février", "city": "Saint-Cyr-l'École", "region":"Île-de-France", "country":"France", "lat":48.793183, "lon":2.067847},
{"name":"Rue du 24 Février", "city": "Niort", "region":"Poitou-Charentes", "country":"France", "lat":46.321218, "lon":-0.463244},
{"name":"Impasse du 12 Février", "city": "Saint-Benoît-de-Carmaux", "region":"Midi-Pyrénées", "country":"France", "lat":44.051086, "lon":2.125024},
{"name":"Rue du 12 Février", "city": "Saint-Benoît-de-Carmaux", "region":"Midi-Pyrénées", "country":"France", "lat":44.051077, "lon":2.125674},
{"name":"Impasse du Deux Février 1794", "city": "Chauché", "region":"Pays de la Loire", "country":"France", "lat":46.828480, "lon":-1.273288},
{"name":"Rue du 24 Février", "city": "Saint-Yrieix-la-Perche", "region":"Limousin", "country":"France", "lat":45.515767, "lon":1.205042},
{"name":"Rue du 8 Février 1962", "city": "Sainte-Geneviève-des-Bois", "region":"Île-de-France", "country":"France", "lat":48.628884, "lon":2.334673},
{"name":"Avenue du 12 Février 1934", "city": "Malakoff", "region":"Île-de-France", "country":"France", "lat":48.818416, "lon":2.307205},
{"name":"Rue du 12 Février", "city": "Villejuif", "region":"Île-de-France", "country":"France", "lat":48.802143, "lon":2.353136},
{"name":"Rue des Martyrs du 8 Février 1962", "city": "Arcueil", "region":"Île-de-France", "country":"France", "lat":48.812057, "lon":2.337378},
{"name":"Avenue du 1er Février 1954", "city": "Le Plessis-Trévise", "region":"Île-de-France", "country":"France", "lat":48.802059, "lon":2.588643},
{"name":"Rue du 14 Février 1952", "city": "Le Moule", "region":"Guadeloupe", "country":"France", "lat":16.331541, "lon":-61.348876},
{"name":"Rue du 19 Mars 1962", "city": "Bellegarde-sur-Valserine", "region":"Rhône-Alpes", "country":"France", "lat":46.116466, "lon":5.809494},
{"name":"Rue du 19 Mars 1962", "city": "Bourg-en-Bresse", "region":"Rhône-Alpes", "country":"France", "lat":46.206535, "lon":5.227842},
{"name":"Place du 19 Mars 1962", "city": "Boz", "region":"Rhône-Alpes", "country":"France", "lat":46.407560, "lon":4.911091},
{"name":"Rue du 19 Mars 1962", "city": "Châtillon-sur-Chalaronne", "region":"Rhône-Alpes", "country":"France", "lat":46.122706, "lon":4.962518},
{"name":"Rue du 19 Mars 1962", "city": "Frans", "region":"Rhône-Alpes", "country":"France", "lat":45.988380, "lon":4.766167},
{"name":"Rue du 19 Mars 1962", "city": "Jassans-Riottier", "region":"Rhône-Alpes", "country":"France", "lat":45.988380, "lon":4.766167},
{"name":"Rue du 19 Mars 1952-1962", "city": "Lent", "region":"Rhône-Alpes", "country":"France", "lat":46.120066, "lon":5.195455},
{"name":"Rue du 19 Mars 1962", "city": "Montrevel-en-Bresse", "region":"Rhône-Alpes", "country":"France", "lat":46.336326, "lon":5.127403},
{"name":"Rue du 19 Mars 1962", "city": "Oyonnax", "region":"Rhône-Alpes", "country":"France", "lat":46.249746, "lon":5.644069},
{"name":"Rue Du 19 Mars 1962", "city": "Sainte-Julie", "region":"Rhône-Alpes", "country":"France", "lat":45.890630, "lon":5.277796},
{"name":"Rue du 19 Mars 1962", "city": "Saint-Trivier-de-Courtes", "region":"Rhône-Alpes", "country":"France", "lat":46.462469, "lon":5.073238},
{"name":"Rue du 19 Mars 1962", "city": "Villars-les-Dombes", "region":"Rhône-Alpes", "country":"France", "lat":46.004545, "lon":5.033016},
{"name":"Rue du 19 Mars 1962", "city": "Vonnas", "region":"Rhône-Alpes", "country":"France", "lat":46.216538, "lon":4.993215},
{"name":"Allée du 19 mars 1962", "city": "Ambérieu-en-Bugey", "region":"Rhône-Alpes", "country":"France", "lat":45.962221, "lon":5.336633},
{"name":"Avenue du 19 Mars 1962", "city": "Arbent", "region":"Rhône-Alpes", "country":"France", "lat":46.283994, "lon":5.669337},
{"name":"Rue du 19 Mars 1962", "city": "Châtillon-en-Michaille", "region":"Rhône-Alpes", "country":"France", "lat":46.116466, "lon":5.809494},
{"name":"Place du 19 Mars 1962", "city": "Gorrevod", "region":"Rhône-Alpes", "country":"France", "lat":46.419637, "lon":4.945064},
{"name":"Place du 19 Mars 1962", "city": "Manziat", "region":"Rhône-Alpes", "country":"France", "lat":46.359112, "lon":4.906637},
{"name":"Rue du 19 Mars 1962", "city": "Marboz", "region":"Rhône-Alpes", "country":"France", "lat":46.341665, "lon":5.256771},
{"name":"Rue du 19 Mars 1962", "city": "Saint-Denis-en-Bugey", "region":"Rhône-Alpes", "country":"France", "lat":45.950389, "lon":5.328977},
{"name":"Rue du 19 Mars 1962", "city": "Gauchy", "region":"Picardie", "country":"France", "lat":49.828067, "lon":3.286572},
{"name":"Rue 19 Mars 1962", "city": "Tergnier", "region":"Picardie", "country":"France", "lat":49.655078, "lon":3.317497},
{"name":"Rue du 19 Mars 1962", "city": "Saint-Quentin", "region":"Picardie", "country":"France", "lat":49.864557, "lon":3.291940},
{"name":"Rue du 19 Mars 1962", "city": "Bessay-sur-Allier", "region":"Auvergne", "country":"France", "lat":46.441974, "lon":3.363053},
{"name":"Rue du Dix Neuf Mars 1962", "city": "Domérat", "region":"Auvergne", "country":"France", "lat":46.362915, "lon":2.566198},
{"name":"Rue du 19 Mars 1962", "city": "Franchesse", "region":"Auvergne", "country":"France", "lat":46.636268, "lon":3.036586},
{"name":"Rue du 19 Mars 1962", "city": "Prémilhat", "region":"Auvergne", "country":"France", "lat":46.311971, "lon":2.539392},
{"name":"Impasse du 19 Mars 1962", "city": "Villebret", "region":"Auvergne", "country":"France", "lat":46.269692, "lon":2.637983},
{"name":"Rue du 19 Mars 1962", "city": "Villebret", "region":"Auvergne", "country":"France", "lat":46.270033, "lon":2.638435},
{"name":"Rue du 19 Mars 1962", "city": "Arfeuilles", "region":"Auvergne", "country":"France", "lat":46.159025, "lon":3.733641},
{"name":"Rue du 19 Mars 1962", "city": "L'Escale", "region":"Provence-Alpes-Côte d'Azur", "country":"France", "lat":44.079480, "lon":6.020647},
{"name":"Place du 19 Mars", "city": "Pierrevert", "region":"Provence-Alpes-Côte d'Azur", "country":"France", "lat":43.811416, "lon":5.750209},
{"name":"Route Nat 96 de Marseille", "city": "Sainte-Tulle", "region":"Provence-Alpes-Côte d'Azur", "country":"France", "lat":43.781766, "lon":5.765405},
{"name":"Rue du 19 Mars 1962", "city": "Barcelonnette", "region":"Provence-Alpes-Côte d'Azur", "country":"France", "lat":44.384426, "lon":6.652242},
{"name":"Rue du 19 Mars 1962", "city": "Digne-les-Bains", "region":"Provence-Alpes-Côte d'Azur", "country":"France", "lat":44.083241, "lon":6.213684},
{"name":"Rue du 19 Mars 1962", "city": "Les Mées", "region":"Provence-Alpes-Côte d'Azur", "country":"France", "lat":44.035090, "lon":5.984821},
{"name":"Rue du 19 Mars", "city": "Peyruis", "region":"Provence-Alpes-Côte d'Azur", "country":"France", "lat":44.033829, "lon":5.943639},
{"name":"Place du 19 Mars 1962", "city": "Roumoules", "region":"Provence-Alpes-Côte d'Azur", "country":"France", "lat":43.825036, "lon":6.128576},
{"name":"Place du 19 Mars 1962", "city": "Montagnac-Montpezat", "region":"Provence-Alpes-Côte d'Azur", "country":"France", "lat":43.779129, "lon":6.095500},
{"name":"Rue du 19 Mars 1962", "city": "Puimoisson", "region":"Provence-Alpes-Côte d'Azur", "country":"France", "lat":43.864319, "lon":6.127771},
{"name":"Rue du 19 Mars 1962", "city": "Valensole", "region":"Provence-Alpes-Côte d'Azur", "country":"France", "lat":43.838204, "lon":5.987540},
{"name":"Rue du 19 Mars 1962", "city": "Volonne", "region":"Provence-Alpes-Côte d'Azur", "country":"France", "lat":44.108054, "lon":6.017412},
{"name":"Rue du 19 Mars 1962", "city": "Aspres-sur-Buëch", "region":"Provence-Alpes-Côte d'Azur", "country":"France", "lat":44.521598, "lon":5.748906},
{"name":"Rue du Vingt Quatre Mars", "city": "Nice", "region":"Provence-Alpes-Côte d'Azur", "country":"France", "lat":43.732051, "lon":7.274618},
{"name":"Rue du 19 Mars 1962", "city": "Flaviac", "region":"Rhône-Alpes", "country":"France", "lat":44.751686, "lon":4.680388},
{"name":"Rue du 19 Mars 1962", "city": "Cruas", "region":"Rhône-Alpes", "country":"France", "lat":44.656654, "lon":4.768190},
{"name":"Place du 19 Mars 1962", "city": "Lavilledieu", "region":"Rhône-Alpes", "country":"France", "lat":44.575379, "lon":4.453098},
{"name":"Chemin du 19 Mars 1962", "city": "Saint-Georges-les-Bains", "region":"Rhône-Alpes", "country":"France", "lat":44.836808, "lon":4.812627},
{"name":"Rue du 19 Mars 1962", "city": "Saint-Julien-en-Saint-Alban", "region":"Rhône-Alpes", "country":"France", "lat":44.756170, "lon":4.692377},
{"name":"Place du 19 Mars", "city": "Saint-Just-d'Ardèche", "region":"Rhône-Alpes", "country":"France", "lat":44.303067, "lon":4.613039},
{"name":"Rue du 19 Mars 1962", "city": "Le Teil", "region":"Rhône-Alpes", "country":"France", "lat":44.552388, "lon":4.689230},
{"name":"Avenue du 19 Mars 1962", "city": "Viviers", "region":"Rhône-Alpes", "country":"France", "lat":44.484332, "lon":4.679101},
{"name":"Rue du 19 Mars 1962", "city": "La Voulte-sur-Rhône", "region":"Rhône-Alpes", "country":"France", "lat":44.809784, "lon":4.786367},
{"name":"Rue du 19 Mars 1962", "city": "Alba-la-Romaine", "region":"Rhône-Alpes", "country":"France", "lat":44.554289, "lon":4.594799},
{"name":"Rue du 19 Mars 1962", "city": "Labégude", "region":"Rhône-Alpes", "country":"France", "lat":44.648623, "lon":4.369941},
{"name":"Place du 19 Mars 1962", "city": "Savas", "region":"Rhône-Alpes", "country":"France", "lat":45.296572, "lon":4.691230},
{"name":"Place du 19 Mars", "city": "Issancourt-et-Rumel", "region":"Champagne-Ardenne", "country":"France", "lat":49.754079, "lon":4.821572},
{"name":"Rue du 19 Mars 1962", "city": "La Bastide-de-Sérou", "region":"Midi-Pyrénées", "country":"France", "lat":43.014239, "lon":1.431034},
{"name":"Rue du 19 Mars 1962", "city": "Calzan", "region":"Midi-Pyrénées", "country":"France", "lat":43.038621, "lon":1.737462},
{"name":"Rue du 19 Mars 1962", "city": "Mazères", "region":"Midi-Pyrénées", "country":"France", "lat":43.254397, "lon":1.674367},
{"name":"Rue du 19 Mars 1962", "city": "Saint-Paul-de-Jarrat", "region":"Midi-Pyrénées", "country":"France", "lat":42.912392, "lon":1.659379},
{"name":"Place du 19 Mars 1962", "city": "Saint-Quirc", "region":"Midi-Pyrénées", "country":"France", "lat":43.275886, "lon":1.502046},
{"name":"Place du 19 Mars 1962", "city": "Tarascon-sur-Ariège", "region":"Midi-Pyrénées", "country":"France", "lat":42.845320, "lon":1.604272},
{"name":"Rue du 19 Mars", "city": "Villeneuve-d'Olmes", "region":"Midi-Pyrénées", "country":"France", "lat":42.907202, "lon":1.820939},
{"name":"Rue du 19 Mars", "city": "Villeneuve-du-Paréage", "region":"Midi-Pyrénées", "country":"France", "lat":43.154714, "lon":1.636684},
{"name":"Rue du 19 Mars", "city": "Foix", "region":"Midi-Pyrénées", "country":"France", "lat":42.989621, "lon":1.616952},
{"name":"Rue du 19 Mars 1962", "city": "Laroque-d'Olmes", "region":"Midi-Pyrénées", "country":"France", "lat":42.974016, "lon":1.870915},
{"name":"Place du 19 Mars 1962", "city": "Lavelanet", "region":"Midi-Pyrénées", "country":"France", "lat":42.928443, "lon":1.841349},
{"name":"Rue du 19 Mars 1962", "city": "Mercus-Garrabet", "region":"Midi-Pyrénées", "country":"France", "lat":42.879957, "lon":1.631625},
{"name":"Rue du 19 Mars 1962", "city": "Mirepoix", "region":"Midi-Pyrénées", "country":"France", "lat":43.085714, "lon":1.869013},
{"name":"Rue du 19 Mars 1962", "city": "Pamiers", "region":"Midi-Pyrénées", "country":"France", "lat":43.113394, "lon":1.623766},
{"name":"Rue du 19 Mars 1962", "city": "Le Peyrat", "region":"Midi-Pyrénées", "country":"France", "lat":42.956237, "lon":1.921538},
{"name":"Chemin du 19 Mars 1962", "city": "Sabarat", "region":"Midi-Pyrénées", "country":"France", "lat":43.099892, "lon":1.392596},
{"name":"Rue du 19 Mars 1962", "city": "Saint-Girons", "region":"Midi-Pyrénées", "country":"France", "lat":42.979133, "lon":1.152087},
{"name":"Rue du 19 Mars 1962", "city": "Saint-Jean-du-Falga", "region":"Midi-Pyrénées", "country":"France", "lat":43.088759, "lon":1.627501},
{"name":"Quai du 19 Mars 1962", "city": "Saverdun", "region":"Midi-Pyrénées", "country":"France", "lat":43.232583, "lon":1.576304},
{"name":"Rue du 19 Mars 1962", "city": "La Tour-du-Crieu", "region":"Midi-Pyrénées", "country":"France", "lat":43.109925, "lon":1.652652},
{"name":"Rue du 19 Mars 1962", "city": "Verniolle", "region":"Midi-Pyrénées", "country":"France", "lat":43.076759, "lon":1.649019},
{"name":"Rue du 19 Mars 1962", "city": "Auzat", "region":"Midi-Pyrénées", "country":"France", "lat":42.765448, "lon":1.482037},
{"name":"La Marsalle Loungo", "city": "Cazals-des-Baylès", "region":"Midi-Pyrénées", "country":"France", "lat":43.088625, "lon":1.931638},
{"name":"Impasse du 19 Mars 1962", "city": "Romilly-sur-Seine", "region":"Champagne-Ardenne", "country":"France", "lat":48.503021, "lon":3.726793},
{"name":"Allée du 19 Mars 1962", "city": "Brienne-le-Château", "region":"Champagne-Ardenne", "country":"France", "lat":48.400358, "lon":4.518349},
{"name":"Place du 19 Mars 1962", "city": "Cazilhac", "region":"Languedoc-Roussillon", "country":"France", "lat":43.182806, "lon":2.366280},
{"name":"Rue du 19 Mars 1962", "city": "Pépieux", "region":"Languedoc-Roussillon", "country":"France", "lat":43.298778, "lon":2.675375},
{"name":"Place du 19 Mars 1962", "city": "Tourouzelle", "region":"Languedoc-Roussillon", "country":"France", "lat":43.253467, "lon":2.721566},
{"name":"Avenue du 19 Mars 1962", "city": "Armissan", "region":"Languedoc-Roussillon", "country":"France", "lat":43.189061, "lon":3.085902},
{"name":"Rue du 19 Mars 1962", "city": "Axat", "region":"Languedoc-Roussillon", "country":"France", "lat":42.804085, "lon":2.231580},
{"name":"Avenue du 19 Mars", "city": "Azille", "region":"Languedoc-Roussillon", "country":"France", "lat":43.280521, "lon":2.658187},
{"name":"Rue du 19 Mars 1962", "city": "Bram", "region":"Languedoc-Roussillon", "country":"France", "lat":43.237116, "lon":2.110927},
{"name":"Rue du 19 Mars 1962", "city": "Capendu", "region":"Languedoc-Roussillon", "country":"France", "lat":43.186635, "lon":2.550781},
{"name":"Rue du 19 Mars 1962", "city": "Caux-et-Sauzens", "region":"Languedoc-Roussillon", "country":"France", "lat":43.224839, "lon":2.255051},
{"name":"Place du 19 Mars 1962", "city": "Conques-sur-Orbiel", "region":"Languedoc-Roussillon", "country":"France", "lat":43.273773, "lon":2.404094},
{"name":"Place du 19 Mars 1962", "city": "Cuxac-d'Aude", "region":"Languedoc-Roussillon", "country":"France", "lat":43.247458, "lon":3.000122},
{"name":"Rue du 19 Mars 1962", "city": "Durban-Corbières", "region":"Languedoc-Roussillon", "country":"France", "lat":42.999221, "lon":2.820921},
{"name":"Place du 19 Mars 1962", "city": "Embres-et-Castelmaure", "region":"Languedoc-Roussillon", "country":"France", "lat":42.939106, "lon":2.813117},
{"name":"Rue du 19 Mars 1962", "city": "Fontjoncouse", "region":"Languedoc-Roussillon", "country":"France", "lat":43.048780, "lon":2.785806},
{"name":"Place du 19 Mars 1962", "city": "Jonquières", "region":"Languedoc-Roussillon", "country":"France", "lat":43.039421, "lon":2.728810},
{"name":"Rue du 19 Mars 1962", "city": "Luc-sur-Orbieu", "region":"Languedoc-Roussillon", "country":"France", "lat":43.173674, "lon":2.786591},
{"name":"Place du 19 Mars", "city": "Magrie", "region":"Languedoc-Roussillon", "country":"France", "lat":43.028121, "lon":2.198846},
{"name":"Rue du 19 Mars 1962", "city": "Marcorignan", "region":"Languedoc-Roussillon", "country":"France", "lat":43.228770, "lon":2.924518},
{"name":"Rue du 19 Mars 1962", "city": "Montbrun-des-Corbières", "region":"Languedoc-Roussillon", "country":"France", "lat":43.197189, "lon":2.683972},
{"name":"Rue du 19 Mars 1962", "city": "Montréal", "region":"Languedoc-Roussillon", "country":"France", "lat":43.195450, "lon":2.135782},
{"name":"Rue du 19 Mars 1962", "city": "Moussoulens", "region":"Languedoc-Roussillon", "country":"France", "lat":43.279046, "lon":2.230256},
{"name":"Place du 19 Mars 1962", "city": "Mouthoumet", "region":"Languedoc-Roussillon", "country":"France", "lat":42.959866, "lon":2.526473},
{"name":"Rue du 19 Mars 1962", "city": "Pezens", "region":"Languedoc-Roussillon", "country":"France", "lat":43.252443, "lon":2.268723},
{"name":"Rue du 19 Mars 1962", "city": "Puichéric", "region":"Languedoc-Roussillon", "country":"France", "lat":43.222879, "lon":2.622702},
{"name":"Rue du 19 Mars 1962", "city": "Quillan", "region":"Languedoc-Roussillon", "country":"France", "lat":42.874516, "lon":2.176089},
{"name":"Rue du 19 Mars 1962", "city": "Rieux-Minervois", "region":"Languedoc-Roussillon", "country":"France", "lat":43.281068, "lon":2.592155},
{"name":"Rue du 19 Mars", "city": "Roubia", "region":"Languedoc-Roussillon", "country":"France", "lat":43.248644, "lon":2.800608},
{"name":"Place du 19 Mars", "city": "Roullens", "region":"Languedoc-Roussillon", "country":"France", "lat":43.164817, "lon":2.272466},
{"name":"Rue du 19 Mars 1962", "city": "Sallèles-d'Aude", "region":"Languedoc-Roussillon", "country":"France", "lat":43.259391, "lon":2.943951},
{"name":"Rue du 19 Mars", "city": "Salsigne", "region":"Languedoc-Roussillon", "country":"France", "lat":43.330031, "lon":2.356880},
{"name":"Place du 19 Mars 1962", "city": "Villegailhenc", "region":"Languedoc-Roussillon", "country":"France", "lat":43.267564, "lon":2.357421},
{"name":"Rue du 19 Mars 1962", "city": "Villesèquelande", "region":"Languedoc-Roussillon", "country":"France", "lat":43.237373, "lon":2.231812},
{"name":"Rue du 19 Mars 1962", "city": "Alzonne", "region":"Languedoc-Roussillon", "country":"France", "lat":43.253476, "lon":2.169729},
{"name":"Place du 19 Mars 1962", "city": "Cuxac-Cabardès", "region":"Languedoc-Roussillon", "country":"France", "lat":43.361730, "lon":2.270813},
{"name":"Avenue du 19 Mars", "city": "Espéraza", "region":"Languedoc-Roussillon", "country":"France", "lat":42.935255, "lon":2.218349},
{"name":"Rue du 6 Mars 1962", "city": "Ferrals-les-Corbières", "region":"Languedoc-Roussillon", "country":"France", "lat":43.149634, "lon":2.727911},
{"name":"Allée du 19 Mars 1962", "city": "Limoux", "region":"Languedoc-Roussillon", "country":"France", "lat":43.054124, "lon":2.219022},
{"name":"Rue du 19 Mars 1962", "city": "Pennautier", "region":"Languedoc-Roussillon", "country":"France", "lat":43.246000, "lon":2.318314},
{"name":"Place du 19 Mars 1962", "city": "Peyriac-Minervois", "region":"Languedoc-Roussillon", "country":"France", "lat":43.292319, "lon":2.566576},
{"name":"Place du 19 Mars", "city": "Preixan", "region":"Languedoc-Roussillon", "country":"France", "lat":43.144259, "lon":2.290252},
{"name":"Placette du 19 Mars 1962", "city": "Tuchan", "region":"Languedoc-Roussillon", "country":"France", "lat":42.888473, "lon":2.720477},
{"name":"Place du 19 Mars 1962", "city": "Baraqueville", "region":"Midi-Pyrénées", "country":"France", "lat":44.277656, "lon":2.436733},
{"name":"Rue du 19 Mars 1962", "city": "Aubin", "region":"Midi-Pyrénées", "country":"France", "lat":44.529052, "lon":2.252769},
{"name":"Rue du 19 Mars 1962", "city": "Bozouls", "region":"Midi-Pyrénées", "country":"France", "lat":44.474658, "lon":2.725090},
{"name":"Rue du 19 Mars 1962", "city": "Capdenac-Gare", "region":"Midi-Pyrénées", "country":"France", "lat":44.565432, "lon":2.089258},
{"name":"Place du 19 Mars 1962", "city": "Creissels", "region":"Midi-Pyrénées", "country":"France", "lat":44.085404, "lon":3.061275},
{"name":"Rue des Anciens Combattants AFN - 19 Mars 1962", "city": "Laissac", "region":"Midi-Pyrénées", "country":"France", "lat":44.380431, "lon":2.820272},
{"name":"Rue du 19 Mars 1962", "city": "Rieupeyroux", "region":"Midi-Pyrénées", "country":"France", "lat":44.307563, "lon":2.237463},
{"name":"Rue du 19 Mars 1962", "city": "Saint-Affrique", "region":"Midi-Pyrénées", "country":"France", "lat":43.961948, "lon":2.876916},
{"name":"Rue du 19 Mars 1962", "city": "Sévérac-le-Château", "region":"Midi-Pyrénées", "country":"France", "lat":44.320307, "lon":3.061855},
{"name":"Avenue du 19 Mars 1962", "city": "Cransac", "region":"Midi-Pyrénées", "country":"France", "lat":44.525777, "lon":2.271006},
{"name":"Route du 19 Mars 1962", "city": "Lapanouse", "region":"Midi-Pyrénées", "country":"France", "lat":44.334510, "lon":3.031974},
{"name":"Rue du 19 Mars 1962", "city": "Millau", "region":"Midi-Pyrénées", "country":"France", "lat":44.101213, "lon":3.084329},
{"name":"Place du 19 Mars", "city": "Montjaux", "region":"Midi-Pyrénées", "country":"France", "lat":44.102585, "lon":2.905558},
{"name":"Rue du 19 Mars 1962", "city": "Naucelle", "region":"Midi-Pyrénées", "country":"France", "lat":44.199207, "lon":2.340686},
{"name":"Rue du 19 Mars 1962", "city": "Villefranche-de-Rouergue", "region":"Midi-Pyrénées", "country":"France", "lat":44.355500, "lon":2.036459},
{"name":"Les Quatre Mars", "city": "Sainte-Eulalie-d'Olt", "region":"Midi-Pyrénées", "country":"France", "lat":44.469269, "lon":2.917502},
{"name":"Rue du 19 Mars 1962", "city": "Alleins", "region":"Provence-Alpes-Côte d'Azur", "country":"France", "lat":43.704405, "lon":5.168821},
{"name":"Place du 15 Mars 1962 Raphèle", "city": "Arles", "region":"Provence-Alpes-Côte d'Azur", "country":"France", "lat":43.643816, "lon":4.726061},
{"name":"Voie Communale 38 Drai Marseillaise Fourc", "city": "Arles", "region":"Provence-Alpes-Côte d'Azur", "country":"France", "lat":43.649439, "lon":4.667090},
{"name":"Route N°113 Marseille A Bordeaux", "city": "Arles", "region":"Provence-Alpes-Côte d'Azur", "country":"France", "lat":43.662101, "lon":4.650711},
{"name":"Avenue du 19 Mars 1962", "city": "Berre-l'Étang", "region":"Provence-Alpes-Côte d'Azur", "country":"France", "lat":43.489993, "lon":5.160610},
{"name":"Route Nat 8 de Marseille A Paris", "city": "Bouc-Bel-Air", "region":"Provence-Alpes-Côte d'Azur", "country":"France", "lat":43.457405, "lon":5.403869},
{"name":"N 543 Marseille A Sault Vauc", "city": "Cabriès", "region":"Provence-Alpes-Côte d'Azur", "country":"France", "lat":43.453316, "lon":5.358413},
{"name":"Rue du 19 Mars 1962", "city": "Gignac-la-Nerthe", "region":"Provence-Alpes-Côte d'Azur", "country":"France", "lat":43.387797, "lon":5.232452},
{"name":"Rue du 19 Mars 1962", "city": "Noves", "region":"Provence-Alpes-Côte d'Azur", "country":"France", "lat":43.875696, "lon":4.903432},
{"name":"Route 568 de Nîmes A Marseille", "city": "Saint-Martin-de-Crau", "region":"Provence-Alpes-Côte d'Azur", "country":"France", "lat":43.588532, "lon":4.778019},
{"name":"Chemin Departemental N° 5 Marseille A Graveson", "city": "Saint-Rémy-de-Provence", "region":"Provence-Alpes-Côte d'Azur", "country":"France", "lat":43.794690, "lon":4.829299},
{"name":"Avenue du 19 Mars 1962", "city": "Aubagne", "region":"Provence-Alpes-Côte d'Azur", "country":"France", "lat":43.289219, "lon":5.569016},
{"name":"Avenue du 19 Mars 1962", "city": "La Bouilladisse", "region":"Provence-Alpes-Côte d'Azur", "country":"France", "lat":43.403995, "lon":5.581972},
{"name":"Rue du 19 Mars", "city": "Boulbon", "region":"Provence-Alpes-Côte d'Azur", "country":"France", "lat":43.854982, "lon":4.692855},
{"name":"Rue du 19 Mars 1962", "city": "Plan-d'Orgon", "region":"Provence-Alpes-Côte d'Azur", "country":"France", "lat":43.808039, "lon":5.000456},
{"name":"Impasse du 19 Mars 1962", "city": "Port-de-Bouc", "region":"Provence-Alpes-Côte d'Azur", "country":"France", "lat":43.415218, "lon":4.986019},
{"name":"Rue du 19 Mars 1962", "city": "Port-de-Bouc", "region":"Provence-Alpes-Côte d'Azur", "country":"France", "lat":43.414227, "lon":4.997696},
{"name":"Avenue du 19 Mars", "city": "Saint-Andiol", "region":"Provence-Alpes-Côte d'Azur", "country":"France", "lat":43.834644, "lon":4.948481},
{"name":"Rue du 19 Mars 1962", "city": "Saint-Mitre-les-Remparts", "region":"Provence-Alpes-Côte d'Azur", "country":"France", "lat":43.452264, "lon":5.021888},
{"name":"Avenue du 19 Mars 1962", "city": "Saint-Rémy-de-Provence", "region":"Provence-Alpes-Côte d'Azur", "country":"France", "lat":43.792697, "lon":4.833314},
{"name":"Rue du 19 Mars 1962", "city": "Saint-Victoret", "region":"Provence-Alpes-Côte d'Azur", "country":"France", "lat":43.418724, "lon":5.255230},
{"name":"Rue du 19 Mars 1962", "city": "Tarascon", "region":"Provence-Alpes-Côte d'Azur", "country":"France", "lat":43.804445, "lon":4.668704},
{"name":"Rue du 19 Mars 1962", "city": "Berre-l'Étang", "region":"Provence-Alpes-Côte d'Azur", "country":"France", "lat":43.491484, "lon":5.161049},
{"name":"Rue du 19 Mars 1962", "city": "Argences", "region":"Basse-Normandie", "country":"France", "lat":49.123984, "lon":-0.171260},
{"name":"Rue du 19 Mars 1962", "city": "Blainville-sur-Orne", "region":"Basse-Normandie", "country":"France", "lat":49.226987, "lon":-0.308433},
{"name":"Rue du 8 Mars 1846", "city": "Condé-sur-Ifs", "region":"Basse-Normandie", "country":"France", "lat":49.042292, "lon":-0.126984},
{"name":"Avenue du 19 Mars 1962", "city": "Fleury-sur-Orne", "region":"Basse-Normandie", "country":"France", "lat":49.155822, "lon":-0.358987},
{"name":"Rue du 19 Mars 1962", "city": "Giberville", "region":"Basse-Normandie", "country":"France", "lat":49.185722, "lon":-0.289037},
{"name":"Rue du 19 Mars 1962", "city": "Mondeville", "region":"Basse-Normandie", "country":"France", "lat":49.166255, "lon":-0.324552},
{"name":"Rue du 19 Mars 1962", "city": "Dives-sur-Mer", "region":"Basse-Normandie", "country":"France", "lat":49.279326, "lon":-0.109798},
{"name":"Rue Du 19 Mars 1962", "city": "Isigny-sur-Mer", "region":"Basse-Normandie", "country":"France", "lat":49.309981, "lon":-1.101720},
{"name":"Rue du 19 Mars 1962", "city": "Saint-Martin-des-Besaces", "region":"Basse-Normandie", "country":"France", "lat":49.011261, "lon":-0.848558},
{"name":"Rue du 19 Mars", "city": "Arpajon-sur-Cère", "region":"Auvergne", "country":"France", "lat":44.904456, "lon":2.475573},
{"name":"Place du 19 Mars", "city": "Condat", "region":"Auvergne", "country":"France", "lat":45.341613, "lon":2.758121},
{"name":"Place du 19 Mars 1962", "city": "Pers", "region":"Auvergne", "country":"France", "lat":44.887477, "lon":2.238618},
{"name":"Place du 19 Mars 1962", "city": "Polminhac", "region":"Auvergne", "country":"France", "lat":44.951258, "lon":2.580241},
{"name":"Rue du 19 Mars 1962", "city": "Saint-Georges", "region":"Auvergne", "country":"France", "lat":45.020073, "lon":3.128474},
{"name":"Place du Dix Neuf Mars 1962", "city": "Trizac", "region":"Auvergne", "country":"France", "lat":45.252059, "lon":2.538194},
{"name":"Place du 19 Mars 1962", "city": "Ytrac", "region":"Auvergne", "country":"France", "lat":44.878941, "lon":2.384180},
{"name":"Rue du 19 Mars 1962", "city": "Allanche", "region":"Auvergne", "country":"France", "lat":45.227816, "lon":2.936380},
{"name":"Rue du 19 Mars", "city": "Ally", "region":"Auvergne", "country":"France", "lat":45.168309, "lon":2.318908},
{"name":"Place du 19 Mars 1962", "city": "Cayrols", "region":"Auvergne", "country":"France", "lat":44.831340, "lon":2.233700},
{"name":"Place du 19 Mars 1962", "city": "Champagnac", "region":"Auvergne", "country":"France", "lat":45.355603, "lon":2.409732},
{"name":"Place du 19 Mars 1962", "city": "Crandelles", "region":"Auvergne", "country":"France", "lat":44.959192, "lon":2.353149},
{"name":"Rue du 19 Mars 1962", "city": "Gourdièges", "region":"Auvergne", "country":"France", "lat":44.936883, "lon":2.878036},
{"name":"Rue du 19 Mars 1962", "city": "Lanobre", "region":"Auvergne", "country":"France", "lat":45.437255, "lon":2.532584},
{"name":"Rue du 19 Mars 1962", "city": "Laroquebrou", "region":"Auvergne", "country":"France", "lat":44.967880, "lon":2.197262},
{"name":"Rue du 19 Mars 1962", "city": "Laveissière", "region":"Auvergne", "country":"France", "lat":45.115421, "lon":2.805181},
{"name":"Rue du 19 Mars", "city": "Massiac", "region":"Auvergne", "country":"France", "lat":45.253993, "lon":3.200473},
{"name":"Impasse du 19 Mars 1962", "city": "Massiac", "region":"Auvergne", "country":"France", "lat":45.255432, "lon":3.200842},
{"name":"Rue du 19 Mars 1962", "city": "Mauriac", "region":"Auvergne", "country":"France", "lat":45.211622, "lon":2.339356},
{"name":"Rue du 19 Mars 1962", "city": "Maurs", "region":"Auvergne", "country":"France", "lat":44.712505, "lon":2.198878},
{"name":"Place du 19 Mars 1962", "city": "Naucelles", "region":"Auvergne", "country":"France", "lat":44.959603, "lon":2.416949},
{"name":"Place du 19 Mars 1962", "city": "Neussargues-Moissac", "region":"Auvergne", "country":"France", "lat":45.125420, "lon":2.974978},
{"name":"Rue du 19 Mars 1962", "city": "Oradour", "region":"Auvergne", "country":"France", "lat":44.920217, "lon":2.934500},
{"name":"Place du 19 Mars 1962", "city": "Reilhac", "region":"Auvergne", "country":"France", "lat":44.974841, "lon":2.417391},
{"name":"Rue du 19 Mars 1962", "city": "Riom-ès-Montagnes", "region":"Auvergne", "country":"France", "lat":45.282002, "lon":2.669371},
{"name":"Rue du 19 Mars 1962", "city": "Saint-Flour", "region":"Auvergne", "country":"France", "lat":45.039140, "lon":3.074581},
{"name":"Cité du 19 Mars 1962", "city": "Thiézac", "region":"Auvergne", "country":"France", "lat":45.011377, "lon":2.669368},
{"name":"Rue du 19 Mars 1962", "city": "Velzic", "region":"Auvergne", "country":"France", "lat":45.000658, "lon":2.553598},
{"name":"Rue du 19 Mars 1962", "city": "Ydes", "region":"Auvergne", "country":"France", "lat":45.345597, "lon":2.432534},
{"name":"Rue du 19 Mars 1962", "city": "Vic-sur-Cère", "region":"Auvergne", "country":"France", "lat":44.978344, "lon":2.626066},
{"name":"Rue du 19 Mars 1962", "city": "Brie", "region":"Poitou-Charentes", "country":"France", "lat":45.739885, "lon":0.240886},
{"name":"Rue du 22 Mars", "city": "Chasseneuil-sur-Bonnieure", "region":"Poitou-Charentes", "country":"France", "lat":45.824457, "lon":0.448846},
{"name":"Rue du 19 Mars 1962", "city": "Chassors", "region":"Poitou-Charentes", "country":"France", "lat":45.696839, "lon":-0.228567},
{"name":"Place du 19 mars 1962", "city": "Genac", "region":"Poitou-Charentes", "country":"France", "lat":45.798842, "lon":0.025862},
{"name":"Rue du 19 Mars 1962", "city": "Julienne", "region":"Poitou-Charentes", "country":"France", "lat":45.696364, "lon":-0.228638},
{"name":"Place du 19 Mars 1962", "city": "Montboyer", "region":"Poitou-Charentes", "country":"France", "lat":45.325146, "lon":0.074098},
{"name":"Rue du 19 Mars 62", "city": "Saint-Séverin", "region":"Poitou-Charentes", "country":"France", "lat":45.313379, "lon":0.251181},
{"name":"Rue du 19 Mars 1962", "city": "Chabanais", "region":"Poitou-Charentes", "country":"France", "lat":45.882227, "lon":0.721566},
{"name":"Rue Du 19 Mars 1962", "city": "La Couronne", "region":"Poitou-Charentes", "country":"France", "lat":45.610371, "lon":0.099959},
{"name":"Rue du 19 Mars 1962", "city": "Jurignac", "region":"Poitou-Charentes", "country":"France", "lat":45.534718, "lon":-0.033145},
{"name":"Rue du 19 Mars 1962", "city": "Ruffec", "region":"Poitou-Charentes", "country":"France", "lat":46.020283, "lon":0.196244},
{"name":"Rue du 19 Mars 1962", "city": "Saint-Yrieix-sur-Charente", "region":"Poitou-Charentes", "country":"France", "lat":45.688505, "lon":0.116571},
{"name":"Rue du 22 Mars 1944", "city": "Saint-Laurent-de-Céris", "region":"Poitou-Charentes", "country":"France", "lat":45.941692, "lon":0.479716},
{"name":"Rue du 19 Mars 1962", "city": "Soyaux", "region":"Poitou-Charentes", "country":"France", "lat":45.654324, "lon":0.205293},
{"name":"Impasse du 19 Mars", "city": "Bougneau", "region":"Poitou-Charentes", "country":"France", "lat":45.587613, "lon":-0.510225},
{"name":"Rue du Dix Neuf Mars 1962", "city": "Bouhet", "region":"Poitou-Charentes", "country":"France", "lat":46.165341, "lon":-0.860455},
{"name":"Rue du Dix Neuf Mars", "city": "La Brousse", "region":"Poitou-Charentes", "country":"France", "lat":45.887762, "lon":-0.362883},
{"name":"Rue du 19 Mars 1962", "city": "Burie", "region":"Poitou-Charentes", "country":"France", "lat":45.772342, "lon":-0.411382},
{"name":"Place du 19 Mars 1962", "city": "Clion", "region":"Poitou-Charentes", "country":"France", "lat":45.478576, "lon":-0.500015},
{"name":"Rue du Dix Neuf Mars 1962", "city": "Coulonges", "region":"Poitou-Charentes", "country":"France", "lat":45.610256, "lon":-0.423635},
{"name":"Espace du 19 Mars 1962", "city": "Courcerac", "region":"Poitou-Charentes", "country":"France", "lat":45.841568, "lon":-0.362761},
{"name":"Rue du 19 Mars 1962", "city": "Cramchaban", "region":"Poitou-Charentes", "country":"France", "lat":46.224660, "lon":-0.724930},
{"name":"Square du 19 Mars 1962", "city": "Ferrières", "region":"Poitou-Charentes", "country":"France", "lat":46.229523, "lon":-0.857136},
{"name":"Place du 19 Mars 1962", "city": "Longèves", "region":"Poitou-Charentes", "country":"France", "lat":46.229647, "lon":-0.989899},
{"name":"Place du Dix-Neuf Mars", "city": "Néré", "region":"Poitou-Charentes", "country":"France", "lat":45.973346, "lon":-0.236005},
{"name":"Rue du 19 Mars", "city": "Nieul-le-Virouil", "region":"Poitou-Charentes", "country":"France", "lat":45.408984, "lon":-0.531389},
{"name":"Rue du 19 Mars 1962", "city": "La Rochelle", "region":"Poitou-Charentes", "country":"France", "lat":46.169779, "lon":-1.133368},
{"name":"Place du 19 Mars", "city": "Saint-Ciers-du-Taillon", "region":"Poitou-Charentes", "country":"France", "lat":45.423204, "lon":-0.640650},
{"name":"Passerelle du 19 Mars 1962", "city": "Saint-Georges-Antignac", "region":"Poitou-Charentes", "country":"France", "lat":45.493317, "lon":-0.503462},
{"name":"Rue du 19 Mars", "city": "Saint-Georges-d'Oléron", "region":"Poitou-Charentes", "country":"France", "lat":45.980286, "lon":-1.333422},
{"name":"Rue du 19 Mars 1962", "city": "Saint-Jean-de-Liversay", "region":"Poitou-Charentes", "country":"France", "lat":46.271465, "lon":-0.872435},
{"name":"Rue du 19 Mars 1962", "city": "Saint-Martial-sur-Né", "region":"Poitou-Charentes", "country":"France", "lat":45.579524, "lon":-0.360148},
{"name":"Rue du 19 Mars 1962", "city": "Saint-Médard-d'Aunis", "region":"Poitou-Charentes", "country":"France", "lat":46.156655, "lon":-0.974346},
{"name":"Rue du 19 Mars", "city": "Semoussac", "region":"Poitou-Charentes", "country":"France", "lat":45.386123, "lon":-0.624295},
{"name":"Rue du Dix Neuf Mars 1962", "city": "Taugon", "region":"Poitou-Charentes", "country":"France", "lat":46.307590, "lon":-0.830133},
{"name":"Rue du 19 Mars", "city": "Villars-les-Bois", "region":"Poitou-Charentes", "country":"France", "lat":45.799088, "lon":-0.436251},
{"name":"Rue du 19 Mars 1962", "city": "Aigrefeuille-d'Aunis", "region":"Poitou-Charentes", "country":"France", "lat":46.118329, "lon":-0.934932},
{"name":"Rue du 19 Mars 1962", "city": "Andilly", "region":"Poitou-Charentes", "country":"France", "lat":46.252678, "lon":-1.021071},
{"name":"Rue du 19 Mars 1962", "city": "Aulnay", "region":"Poitou-Charentes", "country":"France", "lat":46.022202, "lon":-0.350812},
{"name":"Rue du 19 Mars 1962", "city": "Bourcefranc-le-Chapus", "region":"Poitou-Charentes", "country":"France", "lat":45.847348, "lon":-1.147993},
{"name":"Place du 19 Mars 1962", "city": "Breuil-Magné", "region":"Poitou-Charentes", "country":"France", "lat":45.981136, "lon":-0.957133},
{"name":"Rue du 19 Mars 1962", "city": "Bussac-Forêt", "region":"Poitou-Charentes", "country":"France", "lat":45.211098, "lon":-0.371919},
{"name":"Rue du 19 Mars", "city": "Champagne", "region":"Poitou-Charentes", "country":"France", "lat":45.832644, "lon":-0.909323},
{"name":"Rue du 19 Mars 1962", "city": "Champagnolles", "region":"Poitou-Charentes", "country":"France", "lat":45.512504, "lon":-0.635717},
{"name":"Impasse du 19 Mars 1962", "city": "Chaniers", "region":"Poitou-Charentes", "country":"France", "lat":45.719523, "lon":-0.556722},
{"name":"Rue du 19 Mars 1962", "city": "Charron", "region":"Poitou-Charentes", "country":"France", "lat":46.295898, "lon":-1.104822},
{"name":"Rue du 19 Mars", "city": "Chermignac", "region":"Poitou-Charentes", "country":"France", "lat":45.683554, "lon":-0.672152},
{"name":"Rue du 19 Mars 1962", "city": "Ciré-d'Aunis", "region":"Poitou-Charentes", "country":"France", "lat":46.055092, "lon":-0.937581},
{"name":"Rue du 19 Mars 1962", "city": "Colombiers", "region":"Poitou-Charentes", "country":"France", "lat":45.637102, "lon":-0.572002},
{"name":"Rue du 19 Mars", "city": "Dampierre-sur-Boutonne", "region":"Poitou-Charentes", "country":"France", "lat":46.066920, "lon":-0.414421},
{"name":"Rue du 19 Mars 1962", "city": "Gémozac", "region":"Poitou-Charentes", "country":"France", "lat":45.575210, "lon":-0.688609},
{"name":"Rue du 19 Mars 1962", "city": "Hiers-Brouage", "region":"Poitou-Charentes", "country":"France", "lat":45.847492, "lon":-1.076760},
{"name":"Avenue du 19 Mars 1962", "city": "Jonzac", "region":"Poitou-Charentes", "country":"France", "lat":45.437232, "lon":-0.447151},
{"name":"Rue du 19 Mars 1962", "city": "Loire-les-Marais", "region":"Poitou-Charentes", "country":"France", "lat":45.990525, "lon":-0.927095},
{"name":"Rue du 19 Mars 1962", "city": "Loulay", "region":"Poitou-Charentes", "country":"France", "lat":46.043919, "lon":-0.510862},
{"name":"Rue du 19 Mars 1962", "city": "Marans", "region":"Poitou-Charentes", "country":"France", "lat":46.303065, "lon":-0.989813},
{"name":"Rue du 19 Mars 1962", "city": "Meschers-sur-Gironde", "region":"Poitou-Charentes", "country":"France", "lat":45.560437, "lon":-0.949588},
{"name":"Rue du 19 Mars 1962", "city": "Nieul-sur-Mer", "region":"Poitou-Charentes", "country":"France", "lat":46.206774, "lon":-1.171463},
{"name":"Rue du 19 Mars", "city": "Saint-Denis-du-Pin", "region":"Poitou-Charentes", "country":"France", "lat":46.000606, "lon":-0.525504},
{"name":"Rue du 19 Mars 1962", "city": "Pons", "region":"Poitou-Charentes", "country":"France", "lat":45.607645, "lon":-0.569495},
{"name":"Rue du 19 Mars 1962", "city": "Pont-l'Abbé-d'Arnoult", "region":"Poitou-Charentes", "country":"France", "lat":45.827993, "lon":-0.875791},
{"name":"Rue du 19 Mars 1962", "city": "Puilboreau", "region":"Poitou-Charentes", "country":"France", "lat":46.175381, "lon":-1.109940},
{"name":"Rue du 19 Mars", "city": "Rivedoux-Plage", "region":"Poitou-Charentes", "country":"France", "lat":46.167291, "lon":-1.286590},
{"name":"Rue du 19 Mars 1962", "city": "Rochefort", "region":"Poitou-Charentes", "country":"France", "lat":45.948204, "lon":-0.967524},
{"name":"Rue du 19 Mars 1962", "city": "Saint-Fort-sur-Gironde", "region":"Poitou-Charentes", "country":"France", "lat":45.462866, "lon":-0.722182},
{"name":"Rue du Dix Neuf Mars 1962", "city": "Saint-Jean-d'Angély", "region":"Poitou-Charentes", "country":"France", "lat":45.953520, "lon":-0.516837},
{"name":"Rue du Dix Neuf Mars", "city": "Saint-Julien-de-l'Escap", "region":"Poitou-Charentes", "country":"France", "lat":45.932828, "lon":-0.488290},
{"name":"Rue du 19 Mars 1962", "city": "Saint-Just-Luzac", "region":"Poitou-Charentes", "country":"France", "lat":45.802181, "lon":-1.040103},
{"name":"Rue du 19 Mars 1962", "city": "Saint-Léger", "region":"Poitou-Charentes", "country":"France", "lat":45.607645, "lon":-0.569495},
{"name":"Rue du 19 Mars 1962", "city": "Sainte-Marie-de-Ré", "region":"Poitou-Charentes", "country":"France", "lat":46.150116, "lon":-1.305037},
{"name":"Rue du 19 Mars 1962", "city": "Saint-Ouen-d'Aunis", "region":"Poitou-Charentes", "country":"France", "lat":46.227650, "lon":-1.032743},
{"name":"Rue du 19 Mars 1962", "city": "Saint-Rogatien", "region":"Poitou-Charentes", "country":"France", "lat":46.146550, "lon":-1.069678},
{"name":"Rue du 19 Mars 1962", "city": "Saint-Sorlin-de-Conac", "region":"Poitou-Charentes", "country":"France", "lat":45.370407, "lon":-0.679518},
{"name":"Place du 19 Mars 1962", "city": "Saintes", "region":"Poitou-Charentes", "country":"France", "lat":45.754252, "lon":-0.636451},
{"name":"Rue du 19 Mars 1962", "city": "Salles-sur-Mer", "region":"Poitou-Charentes", "country":"France", "lat":46.107206, "lon":-1.061524},
{"name":"Rue du 19 Mars 1962", "city": "Saujon", "region":"Poitou-Charentes", "country":"France", "lat":45.663854, "lon":-0.920329},
{"name":"Rue du 19 Mars 1962", "city": "Surgères", "region":"Poitou-Charentes", "country":"France", "lat":46.103990, "lon":-0.767860},
{"name":"Rue du 19 Mars 1962", "city": "Thénac", "region":"Poitou-Charentes", "country":"France", "lat":45.671035, "lon":-0.651657},
{"name":"Rue du 19 Mars 1962", "city": "Vergeroux", "region":"Poitou-Charentes", "country":"France", "lat":45.971663, "lon":-0.979564},
{"name":"Rue du 23 Mars 1908", "city": "Bourcefranc-le-Chapus", "region":"Poitou-Charentes", "country":"France", "lat":45.837009, "lon":-1.133390},
{"name":"Rue du 19 Mars 1962", "city": "Châtelaillon-Plage", "region":"Poitou-Charentes", "country":"France", "lat":46.068145, "lon":-1.086980},
{"name":"Place du 19 Mars 1962", "city": "Crazannes", "region":"Poitou-Charentes", "country":"France", "lat":45.847786, "lon":-0.704162},
{"name":"Rue du 19 Mars 1962", "city": "Matha", "region":"Poitou-Charentes", "country":"France", "lat":45.866220, "lon":-0.317778},
{"name":"Rue du 19 Mars 1962", "city": "Saint-Savinien", "region":"Poitou-Charentes", "country":"France", "lat":45.873968, "lon":-0.679630},
{"name":"Rue du 19 Mars 1962", "city": "Tonnay-Charente", "region":"Poitou-Charentes", "country":"France", "lat":45.941635, "lon":-0.888496},
{"name":"Place du 19 Mars", "city": "Précy", "region":"Centre", "country":"France", "lat":47.099491, "lon":2.927830},
{"name":"Rue du 19 Mars 1962", "city": "Aubigny-sur-Nère", "region":"Centre", "country":"France", "lat":47.479363, "lon":2.429878},
{"name":"Rue du 19 Mars 1962", "city": "Beffes", "region":"Centre", "country":"France", "lat":47.092203, "lon":3.008403},
{"name":"Rue du 19 Mars 1962", "city": "Bourges", "region":"Centre", "country":"France", "lat":47.065336, "lon":2.404419},
{"name":"Rue du 19 Mars 1962", "city": "Herry", "region":"Centre", "country":"France", "lat":47.216073, "lon":2.949855},
{"name":"Rue du 19 Mars 1962", "city": "Jouet-sur-l'Aubois", "region":"Centre", "country":"France", "lat":47.046558, "lon":2.999855},
{"name":"Rue du 19 Mars 1962", "city": "Jussy-le-Chaudrier", "region":"Centre", "country":"France", "lat":47.129054, "lon":2.931676},
{"name":"Rue du 19 Mars 1962", "city": "Marseilles-lès-Aubigny", "region":"Centre", "country":"France", "lat":47.065992, "lon":3.012928},
{"name":"Rue du 19 Mars 1962", "city": "Méreau", "region":"Centre", "country":"France", "lat":47.164734, "lon":2.050328},
{"name":"Rue du 19 Mars 1962 Cessez le Feu de la Guerre d'Algérie", "city": "Saint-Doulchard", "region":"Centre", "country":"France", "lat":47.102481, "lon":2.359000},
{"name":"Rue du 19 Mars 1962", "city": "Saint-Florent-sur-Cher", "region":"Centre", "country":"France", "lat":46.983284, "lon":2.243762},
{"name":"Rue du 19 Mars 1962", "city": "Trouy", "region":"Centre", "country":"France", "lat":47.010972, "lon":2.358535},
{"name":"Avenue du 19 Mars 1962", "city": "Vierzon", "region":"Centre", "country":"France", "lat":47.238800, "lon":2.090403},
{"name":"Rue du 19 Mars 1962", "city": "Villequiers", "region":"Centre", "country":"France", "lat":47.067281, "lon":2.803942},
{"name":"Rue du 19 Mars 1962", "city": "Allassac", "region":"Limousin", "country":"France", "lat":45.254818, "lon":1.469559},
{"name":"Rue du 19 Mars 1962", "city": "Argentat", "region":"Limousin", "country":"France", "lat":45.089861, "lon":1.942992},
{"name":"Rue du 19 Mars 1962", "city": "Corrèze", "region":"Limousin", "country":"France", "lat":45.373484, "lon":1.865790},
{"name":"Allée du 19 Mars 1962", "city": "Cublac", "region":"Limousin", "country":"France", "lat":45.153389, "lon":1.299237},
{"name":"Allée du 19 Mars 1962", "city": "Donzenac", "region":"Limousin", "country":"France", "lat":45.220764, "lon":1.519664},
{"name":"Avenue du 19 Mars 1962", "city": "Larche", "region":"Limousin", "country":"France", "lat":45.116225, "lon":1.418136},
{"name":"Rue du Dix Neuf Mars", "city": "Lubersac", "region":"Limousin", "country":"France", "lat":45.447770, "lon":1.404228},
{"name":"Rue du 19 Mars 1962", "city": "Malemort-sur-Corrèze", "region":"Limousin", "country":"France", "lat":45.198597, "lon":1.630302},
{"name":"Place du 19 Mars 1962", "city": "Mansac", "region":"Limousin", "country":"France", "lat":45.139303, "lon":1.365328},
{"name":"Rue du 19 Mars 1962", "city": "Naves", "region":"Limousin", "country":"France", "lat":45.313677, "lon":1.765907},
{"name":"Impasse du 19 Mars 1962", "city": "Saint-Aulaire", "region":"Limousin", "country":"France", "lat":45.251553, "lon":1.402790},
{"name":"Rue du 19 Mars 1962", "city": "Sainte-Féréole", "region":"Limousin", "country":"France", "lat":45.228531, "lon":1.585551},
{"name":"Rue du 19 Mars 1962", "city": "Saint-Pantaléon-de-Larche", "region":"Limousin", "country":"France", "lat":45.141979, "lon":1.446285},
{"name":"Rue du 19 Mars 1962", "city": "Tulle", "region":"Limousin", "country":"France", "lat":45.256712, "lon":1.738898},
{"name":"Avenue 19 Mars 1962", "city": "Varetz", "region":"Limousin", "country":"France", "lat":45.191454, "lon":1.449036},
{"name":"Rue du 19 Mars 1962", "city": "Venarsal", "region":"Limousin", "country":"France", "lat":45.198597, "lon":1.630302},
{"name":"Rue du 19 Mars 1962", "city": "La Chapelle-aux-Brocs", "region":"Limousin", "country":"France", "lat":45.146420, "lon":1.627816},
{"name":"Rue du 19 Mars 1962", "city": "Cosnac", "region":"Limousin", "country":"France", "lat":45.136105, "lon":1.583862},
{"name":"Rue du 19 Mars 1962", "city": "Neuvic", "region":"Limousin", "country":"France", "lat":45.378307, "lon":2.268772},
{"name":"Rue du 19 Mars 1962", "city": "Objat", "region":"Limousin", "country":"France", "lat":45.265540, "lon":1.408641},
{"name":"Rue du 19 Mars 1962", "city": "Turenne", "region":"Limousin", "country":"France", "lat":45.055088, "lon":1.582881},
{"name":"Rue du 19 Mars", "city": "Varois-et-Chaignot", "region":"Bourgogne", "country":"France", "lat":47.353120, "lon":5.124111},
{"name":"Place du 19 Mars 1962", "city": "Ahuy", "region":"Bourgogne", "country":"France", "lat":47.367107, "lon":5.024367},
{"name":"Rue du 19 Mars 1962", "city": "Arnay-le-Duc", "region":"Bourgogne", "country":"France", "lat":47.133447, "lon":4.492489},
{"name":"Rue du 19 Mars 1962", "city": "Auxonne", "region":"Bourgogne", "country":"France", "lat":47.195506, "lon":5.412989},
{"name":"Rue du 19 Mars", "city": "Beaune", "region":"Bourgogne", "country":"France", "lat":47.038869, "lon":4.833932},
{"name":"Rue du 19 Mars", "city": "Blaisy-Bas", "region":"Bourgogne", "country":"France", "lat":47.374598, "lon":4.742248},
{"name":"Allée du 19 Mars 1962", "city": "Bligny-sur-Ouche", "region":"Bourgogne", "country":"France", "lat":47.108884, "lon":4.670770},
{"name":"Rue du 19 Mars 1962", "city": "Brazey-en-Plaine", "region":"Bourgogne", "country":"France", "lat":47.133729, "lon":5.214580},
{"name":"Rue du 19 Mars 1962", "city": "Brochon", "region":"Bourgogne", "country":"France", "lat":47.236055, "lon":4.979337},
{"name":"Rue du 19 Mars 1962", "city": "Chaux", "region":"Bourgogne", "country":"France", "lat":47.125000, "lon":4.906677},
{"name":"Place du 19 Mars 1962", "city": "Chenôve", "region":"Bourgogne", "country":"France", "lat":47.297670, "lon":5.006655},
{"name":"Rue du 19 Mars 1962", "city": "Chevigny-Saint-Sauveur", "region":"Bourgogne", "country":"France", "lat":47.297197, "lon":5.134398},
{"name":"Rue du 19 Mars 1962", "city": "Corgoloin", "region":"Bourgogne", "country":"France", "lat":47.086378, "lon":4.915757},
{"name":"Rue du 19 Mars 1962", "city": "Époisses", "region":"Bourgogne", "country":"France", "lat":47.503653, "lon":4.170348},
{"name":"Rue du Dix Neuf Mars 1962", "city": "Is-sur-Tille", "region":"Bourgogne", "country":"France", "lat":47.518088, "lon":5.116752},
{"name":"Rue du 19 Mars 1962", "city": "Laignes", "region":"Bourgogne", "country":"France", "lat":47.846921, "lon":4.366100},
{"name":"Rue du 19 Mars 1962", "city": "Longvic", "region":"Bourgogne", "country":"France", "lat":47.291604, "lon":5.039485},
{"name":"Rue du 19 Mars 1962", "city": "Marcilly-sur-Tille", "region":"Bourgogne", "country":"France", "lat":47.524393, "lon":5.134395},
{"name":"Rue du 19 Mars 1962", "city": "Molesme", "region":"Bourgogne", "country":"France", "lat":47.937681, "lon":4.356741},
{"name":"Rue du 19 Mars 1962", "city": "Montbard", "region":"Bourgogne", "country":"France", "lat":47.637678, "lon":4.332618},
{"name":"Rue du 19 Mars 1962", "city": "Nolay", "region":"Bourgogne", "country":"France", "lat":46.950730, "lon":4.627073},
{"name":"Impasse du 19 Mars 1962", "city": "Nuits-Saint-Georges", "region":"Bourgogne", "country":"France", "lat":47.141097, "lon":4.960028},
{"name":"Rue du 19 Mars 1962", "city": "Orville", "region":"Bourgogne", "country":"France", "lat":47.563877, "lon":5.210563},
{"name":"Rue du 19 Mars 1962", "city": "Perrigny-sur-l'Ognon", "region":"Bourgogne", "country":"France", "lat":47.311057, "lon":5.448369},
{"name":"Rue du 19 Mars 1962", "city": "Pouillenay", "region":"Bourgogne", "country":"France", "lat":47.507432, "lon":4.462877},
{"name":"Rue du 19 Mars 1962", "city": "Pouilly-en-Auxois", "region":"Bourgogne", "country":"France", "lat":47.255846, "lon":4.559810},
{"name":"Avenue du 19 Mars 1962", "city": "Quetigny", "region":"Bourgogne", "country":"France", "lat":47.320975, "lon":5.108488},
{"name":"Rue du 19 Mars 1962", "city": "Sacquenay", "region":"Bourgogne", "country":"France", "lat":47.590392, "lon":5.318507},
{"name":"Rue du 19 Mars 1962", "city": "Sainte-Sabine", "region":"Bourgogne", "country":"France", "lat":47.192694, "lon":4.621266},
{"name":"Rue du 19 Mars 1962", "city": "Saint-Usage", "region":"Bourgogne", "country":"France", "lat":47.112215, "lon":5.255443},
{"name":"Rue du 19 Mars 1962", "city": "Salives", "region":"Bourgogne", "country":"France", "lat":47.618863, "lon":4.918758},
{"name":"Place du 19 Mars 1962", "city": "Semur-en-Auxois", "region":"Bourgogne", "country":"France", "lat":47.494352, "lon":4.353889},
{"name":"Rue du 19 Mars 1962", "city": "Seurre", "region":"Bourgogne", "country":"France", "lat":46.998434, "lon":5.152094},
{"name":"Impasse du 19 Mars 1962", "city": "Touillon", "region":"Bourgogne", "country":"France", "lat":47.653742, "lon":4.439506},
{"name":"Rue du 19 Mars 1962", "city": "Toutry", "region":"Bourgogne", "country":"France", "lat":47.502323, "lon":4.121346},
{"name":"Rue du 19 Mars", "city": "Vandenesse-en-Auxois", "region":"Bourgogne", "country":"France", "lat":47.220841, "lon":4.615843},
{"name":"Allée du 19 Mars 1962", "city": "Venarey-les-Laumes", "region":"Bourgogne", "country":"France", "lat":47.538905, "lon":4.466399},
{"name":"Rue du 19 Mars 1962", "city": "Aignay-le-Duc", "region":"Bourgogne", "country":"France", "lat":47.667685, "lon":4.733468},
{"name":"Place du 19 Mars 1962", "city": "Aisey-sur-Seine", "region":"Bourgogne", "country":"France", "lat":47.748170, "lon":4.577924},
{"name":"Rue du 19 Mars 1962", "city": "Fontaine-lès-Dijon", "region":"Bourgogne", "country":"France", "lat":47.339522, "lon":5.024861},
{"name":"Allée du 19 Mars 1962", "city": "Genlis", "region":"Bourgogne", "country":"France", "lat":47.239013, "lon":5.228222},
{"name":"Square du 19 Mars 1962", "city": "Manlay", "region":"Bourgogne", "country":"France", "lat":47.127104, "lon":4.339388},
{"name":"Rue du 19 Mars 1962", "city": "Marcheseuil", "region":"Bourgogne", "country":"France", "lat":47.144873, "lon":4.349412},
{"name":"Place du 19 Mars 1962", "city": "Orgeux", "region":"Bourgogne", "country":"France", "lat":47.363581, "lon":5.154490},
{"name":"Rond-Point du 19 Mars 1962", "city": "Sombernon", "region":"Bourgogne", "country":"France", "lat":47.311516, "lon":4.714934},
{"name":"Place du 19 Mars 1962", "city": "Villy-en-Auxois", "region":"Bourgogne", "country":"France", "lat":47.421253, "lon":4.634121},
{"name":"Le Marsain 1er Canton", "city": "Saint-Romain", "region":"Bourgogne", "country":"France", "lat":46.992902, "lon":4.709164},
{"name":"Le Marsain 2eme Canton", "city": "Saint-Romain", "region":"Bourgogne", "country":"France", "lat":46.989817, "lon":4.714338},
{"name":"Venelle du 19 Mars 1962", "city": "Coëtmieux", "region":"Bretagne", "country":"France", "lat":48.494986, "lon":-2.601199},
{"name":"Place du 19 Mars 1962", "city": "Glomel", "region":"Bretagne", "country":"France", "lat":48.223003, "lon":-3.394911},
{"name":"Rue du 19 Mars 1962", "city": "Lamballe", "region":"Bretagne", "country":"France", "lat":48.472987, "lon":-2.555057},
{"name":"Boulevard du 19 Mars", "city": "Loguivy-Plougras", "region":"Bretagne", "country":"France", "lat":48.522828, "lon":-3.487661},
{"name":"Rue du 19 Mars 1962", "city": "Planguenoual", "region":"Bretagne", "country":"France", "lat":48.532552, "lon":-2.577122},
{"name":"Rue du 19 Mars 1962", "city": "Plougras", "region":"Bretagne", "country":"France", "lat":48.511319, "lon":-3.561920},
{"name":"Place du 19 Mars 62", "city": "Plusquellec", "region":"Bretagne", "country":"France", "lat":48.385687, "lon":-3.484498},
{"name":"Place Dix Neuf Mars", "city": "Pont-Melvez", "region":"Bretagne", "country":"France", "lat":48.460160, "lon":-3.306157},
{"name":"Rue du 19 Mars 1962", "city": "Bobital", "region":"Bretagne", "country":"France", "lat":48.414151, "lon":-2.104994},
{"name":"Rue du 19 Mars 1962", "city": "Broons", "region":"Bretagne", "country":"France", "lat":48.315937, "lon":-2.260943},
{"name":"Rue du 19 Mars 1962", "city": "Brusvily", "region":"Bretagne", "country":"France", "lat":48.391786, "lon":-2.127215},
{"name":"Rue du 19 Mars 1962", "city": "Callac", "region":"Bretagne", "country":"France", "lat":48.404230, "lon":-3.436388},
{"name":"Rue du 19 Mars 1962", "city": "Caulnes", "region":"Bretagne", "country":"France", "lat":48.291033, "lon":-2.154001},
{"name":"Rue du 19 Mars 1962", "city": "Cavan", "region":"Bretagne", "country":"France", "lat":48.676044, "lon":-3.344008},
{"name":"Rue du 19 Mars 1962", "city": "Collinée", "region":"Bretagne", "country":"France", "lat":48.274520, "lon":-2.625671},
{"name":"Rue du 19 Mars 1962", "city": "Créhen", "region":"Bretagne", "country":"France", "lat":48.547662, "lon":-2.217023},
{"name":"Rue du 19 Mars 1962", "city": "Erquy", "region":"Bretagne", "country":"France", "lat":48.628849, "lon":-2.464262},
{"name":"Rue du 19 Mars 1962", "city": "Gouarec", "region":"Bretagne", "country":"France", "lat":48.232303, "lon":-3.183149},
{"name":"Rue du 19 Mars 1962", "city": "Guingamp", "region":"Bretagne", "country":"France", "lat":48.558662, "lon":-3.149105},
{"name":"Rue du 19 Mars 1962", "city": "Hillion", "region":"Bretagne", "country":"France", "lat":48.516097, "lon":-2.664993},
{"name":"Rue du 19 Mars", "city": "Laniscat", "region":"Bretagne", "country":"France", "lat":48.243038, "lon":-3.123091},
{"name":"Place du 19 Mars", "city": "Lanmérin", "region":"Bretagne", "country":"France", "lat":48.740548, "lon":-3.349212},
{"name":"Rue du 19 Mars 1962", "city": "Lanmodez", "region":"Bretagne", "country":"France", "lat":48.841913, "lon":-3.107013},
{"name":"Rue du 19 Mars 1962", "city": "Lannion", "region":"Bretagne", "country":"France", "lat":48.737237, "lon":-3.459612},
{"name":"Rue du 19 Mars 1962", "city": "Lanrelas", "region":"Bretagne", "country":"France", "lat":48.253833, "lon":-2.293742},
{"name":"Impasse du 19 Mars 1962", "city": "Lanrivain", "region":"Bretagne", "country":"France", "lat":48.346410, "lon":-3.212500},
{"name":"Rue du 19 Mars 1962", "city": "Léhon", "region":"Bretagne", "country":"France", "lat":48.437586, "lon":-2.056597},
{"name":"Rue du 19 Mars 1962", "city": "Lézardrieux", "region":"Bretagne", "country":"France", "lat":48.783200, "lon":-3.116502},
{"name":"Rue du 19 Mars 1962", "city": "Maël-Carhaix", "region":"Bretagne", "country":"France", "lat":48.285462, "lon":-3.420273},
{"name":"Rue du 19 Mars 1962", "city": "Merdrignac", "region":"Bretagne", "country":"France", "lat":48.190915, "lon":-2.427469},
{"name":"Impasse du 19 Mars 1962", "city": "La Motte", "region":"Bretagne", "country":"France", "lat":48.230648, "lon":-2.731068},
{"name":"Rue du 19 Mars 1962", "city": "Pédernec", "region":"Bretagne", "country":"France", "lat":48.598595, "lon":-3.269972},
{"name":"Rue du 19 Mars", "city": "Penvénan", "region":"Bretagne", "country":"France", "lat":48.810928, "lon":-3.301443},
{"name":"Rue du 19 Mars 1962", "city": "Plédran", "region":"Bretagne", "country":"France", "lat":48.448152, "lon":-2.738919},
{"name":"Place du 19 Mars 1962", "city": "Plémet", "region":"Bretagne", "country":"France", "lat":48.180777, "lon":-2.590064},
{"name":"Rue du 19 Mars 1962", "city": "Plémy", "region":"Bretagne", "country":"France", "lat":48.335958, "lon":-2.682165},
{"name":"Rue du 19 Mars 1962", "city": "Plénée-Jugon", "region":"Bretagne", "country":"France", "lat":48.366006, "lon":-2.397707},
{"name":"Rue du 19 Mars 1962", "city": "Plessala", "region":"Bretagne", "country":"France", "lat":48.274520, "lon":-2.625671},
{"name":"Rue du 19 Mars 1962", "city": "Plestan", "region":"Bretagne", "country":"France", "lat":48.422709, "lon":-2.449602},
{"name":"Rue du 19 Mars 1962", "city": "Pleubian", "region":"Bretagne", "country":"France", "lat":48.839676, "lon":-3.140526},
{"name":"Rue du 19 Mars 1962", "city": "Pléven", "region":"Bretagne", "country":"France", "lat":48.491166, "lon":-2.315464},
{"name":"Rue du 19 Mars 1962", "city": "Ploëzal", "region":"Bretagne", "country":"France", "lat":48.715844, "lon":-3.199466},
{"name":"Place du Dix-Neuf Mars 1962", "city": "Plouagat", "region":"Bretagne", "country":"France", "lat":48.536645, "lon":-3.001327},
{"name":"Rue du 19 Mars 1962", "city": "Ploufragan", "region":"Bretagne", "country":"France", "lat":48.500425, "lon":-2.787212},
{"name":"Rue du 19 Mars 1962", "city": "Plougrescant", "region":"Bretagne", "country":"France", "lat":48.838942, "lon":-3.228960},
{"name":"Rue du 19 Mars 1962", "city": "Plouguernével", "region":"Bretagne", "country":"France", "lat":48.242733, "lon":-3.246402},
{"name":"Rue du 19 Mars 1962", "city": "Plouha", "region":"Bretagne", "country":"France", "lat":48.672236, "lon":-2.936633},
{"name":"Rue du 19 Mars 1962", "city": "Ploumagoar", "region":"Bretagne", "country":"France", "lat":48.550834, "lon":-3.135142},
{"name":"Rue du 19 Mars 1962", "city": "Plounévez-Moëdec", "region":"Bretagne", "country":"France", "lat":48.556026, "lon":-3.443585},
{"name":"Place du 19 Mars 1962", "city": "Plourac'h", "region":"Bretagne", "country":"France", "lat":48.416964, "lon":-3.548303},
{"name":"Place du 19 Mars 1962", "city": "Pluduno", "region":"Bretagne", "country":"France", "lat":48.531723, "lon":-2.269417},
{"name":"Rue du 19 Mars 1962", "city": "Plurien", "region":"Bretagne", "country":"France", "lat":48.625361, "lon":-2.400527},
{"name":"Rue du 19 Mars 1962", "city": "Pluzunet", "region":"Bretagne", "country":"France", "lat":48.642273, "lon":-3.371256},
{"name":"Rue du 19 Mars 1962", "city": "Pommeret", "region":"Bretagne", "country":"France", "lat":48.463121, "lon":-2.631136},
{"name":"Rue du 19 Mars", "city": "Prat", "region":"Bretagne", "country":"France", "lat":48.676190, "lon":-3.298496},
{"name":"Rue du 19 Mars 1962", "city": "La Prénessaye", "region":"Bretagne", "country":"France", "lat":48.183375, "lon":-2.635429},
{"name":"Place du 19 Mars 1962", "city": "Saint-Brandan", "region":"Bretagne", "country":"France", "lat":48.390173, "lon":-2.868857},
{"name":"Rue du 19 Mars 1962", "city": "Saint-Brieuc", "region":"Bretagne", "country":"France", "lat":48.507478, "lon":-2.779749},
{"name":"Impasse du 19 Mars 1962", "city": "Saint-Caradec", "region":"Bretagne", "country":"France", "lat":48.190851, "lon":-2.849554},
{"name":"Rue du 19 Mars 1962", "city": "Saint-Donan", "region":"Bretagne", "country":"France", "lat":48.473653, "lon":-2.884248},
{"name":"Rue du Dix-Neuf Mars 1962", "city": "Saint-Étienne-du-Gué-de-l'Isle", "region":"Bretagne", "country":"France", "lat":48.103330, "lon":-2.648408},
{"name":"Rue du 19 Mars 1962", "city": "Saint-Guen", "region":"Bretagne", "country":"France", "lat":48.215229, "lon":-2.935910},
{"name":"Rue du 19 Mars 1962", "city": "Saint-Julien", "region":"Bretagne", "country":"France", "lat":48.452589, "lon":-2.815427},
{"name":"Place du 19 Mars 1962", "city": "Saint-Laurent", "region":"Bretagne", "country":"France", "lat":48.620005, "lon":-3.231735},
{"name":"Rue du 19 Mars 1962", "city": "Saint-Nicolas-du-Pélem", "region":"Bretagne", "country":"France", "lat":48.308898, "lon":-3.164691},
{"name":"Rue du 19 Mars 1962", "city": "Saint-Pôtan", "region":"Bretagne", "country":"France", "lat":48.554839, "lon":-2.292819},
{"name":"Place du 19 Mars 1962", "city": "Sévignac", "region":"Bretagne", "country":"France", "lat":48.332664, "lon":-2.339570},
{"name":"Rue du 19 Mars 1962", "city": "Tonquédec", "region":"Bretagne", "country":"France", "lat":48.671126, "lon":-3.394418},
{"name":"Impasse du 19 Mars 1962", "city": "Trébrivan", "region":"Bretagne", "country":"France", "lat":48.308571, "lon":-3.474266},
{"name":"Rue du 19 Mars 1962", "city": "Trégueux", "region":"Bretagne", "country":"France", "lat":48.488241, "lon":-2.742934},
{"name":"Rue du 19 Mars 1962", "city": "Tréguier", "region":"Bretagne", "country":"France", "lat":48.785523, "lon":-3.224209},
{"name":"Rue du 19 Mars 1962", "city": "Trémorel", "region":"Bretagne", "country":"France", "lat":48.198212, "lon":-2.291488},
{"name":"Rue du 19 Mars 1962", "city": "Le Vieux-Marché", "region":"Bretagne", "country":"France", "lat":48.606468, "lon":-3.458274},
{"name":"Rue du 19 Mars 1962", "city": "Yffiniac", "region":"Bretagne", "country":"France", "lat":48.485114, "lon":-2.677694},
{"name":"Place du 19 Mars 1962", "city": "Kerbors", "region":"Bretagne", "country":"France", "lat":48.827822, "lon":-3.181898},
{"name":"Rue du 19 Mars 1962", "city": "Lanvallay", "region":"Bretagne", "country":"France", "lat":48.455898, "lon":-2.028277},
{"name":"Rue du 19 Mars 1962", "city": "Plédéliac", "region":"Bretagne", "country":"France", "lat":48.448506, "lon":-2.387949},
{"name":"Place du 19 Mars 1962", "city": "Plérin", "region":"Bretagne", "country":"France", "lat":48.534399, "lon":-2.766808},
{"name":"Rue du 19 Mars 1962", "city": "Plouaret", "region":"Bretagne", "country":"France", "lat":48.605164, "lon":-3.463820},
{"name":"Rue du 19 Mars 1962", "city": "Ploumilliau", "region":"Bretagne", "country":"France", "lat":48.678232, "lon":-3.526473},
{"name":"Place du 19 Mars", "city": "Plumaudan", "region":"Bretagne", "country":"France", "lat":48.357935, "lon":-2.124277},
{"name":"Rond-Point du 19 Mars 1962", "city": "Saint-Brieuc", "region":"Bretagne", "country":"France", "lat":48.502537, "lon":-2.738252},
{"name":"Rue du 19 Mars 1962", "city": "Yvignac-la-Tour", "region":"Bretagne", "country":"France", "lat":48.350143, "lon":-2.176434},
{"name":"Rue du 19 Mars", "city": "Boussac", "region":"Limousin", "country":"France", "lat":46.347853, "lon":2.220031},
{"name":"Rue du 19 Mars 1962", "city": "Champsanglard", "region":"Limousin", "country":"France", "lat":46.273579, "lon":1.882472},
{"name":"Rue du 19 Mars 1962", "city": "Châtelus-Malvaleix", "region":"Limousin", "country":"France", "lat":46.303374, "lon":2.018007},
{"name":"Place du 19 Mars 1962", "city": "Colondannes", "region":"Limousin", "country":"France", "lat":46.288487, "lon":1.612679},
{"name":"Place du 19 Mars 1962", "city": "La Courtine", "region":"Limousin", "country":"France", "lat":45.704886, "lon":2.257564},
{"name":"Rue du 19 Mars 1962", "city": "Dun-le-Palestel", "region":"Limousin", "country":"France", "lat":46.306272, "lon":1.671521},
{"name":"Rue du 19 Mars 1962", "city": "Felletin", "region":"Limousin", "country":"France", "lat":45.885070, "lon":2.171801},
{"name":"Rue du 19 Mars 1962", "city": "Le Grand-Bourg", "region":"Limousin", "country":"France", "lat":46.157440, "lon":1.646762},
{"name":"Rue du Dix-Neuf Mars 1962", "city": "Guéret", "region":"Limousin", "country":"France", "lat":46.176925, "lon":1.882574},
{"name":"Rue du 19 Mars 1962", "city": "Jarnages", "region":"Limousin", "country":"France", "lat":46.172667, "lon":2.080107},
{"name":"Place du 19 Mars 1962", "city": "Lizières", "region":"Limousin", "country":"France", "lat":46.212245, "lon":1.577934},
{"name":"Rue du 19 Mars 1962", "city": "Le Monteil-au-Vicomte", "region":"Limousin", "country":"France", "lat":45.929745, "lon":1.937336},
{"name":"Rue du 19 Mars 1962", "city": "Naillat", "region":"Limousin", "country":"France", "lat":46.263050, "lon":1.635645},
{"name":"Rue du 19 Mars", "city": "Sainte-Feyre", "region":"Limousin", "country":"France", "lat":46.139286, "lon":1.914200},
{"name":"Rue du 19 Mars 1962", "city": "Saint-Laurent", "region":"Limousin", "country":"France", "lat":46.165963, "lon":1.961105},
{"name":"Rue du 19 Mars 1962", "city": "Saint-Léger-Bridereix", "region":"Limousin", "country":"France", "lat":46.285710, "lon":1.586506},
{"name":"Rue du 19 Mars 1962", "city": "Saint-Maurice-la-Souterraine", "region":"Limousin", "country":"France", "lat":46.212709, "lon":1.433558},
{"name":"Rue du 19 Mars 1962", "city": "Villard", "region":"Limousin", "country":"France", "lat":46.331151, "lon":1.700671},
{"name":"Place du 19 Mars 1962", "city": "Boussac-Bourg", "region":"Limousin", "country":"France", "lat":46.360514, "lon":2.233573},
{"name":"Place du 19 Mars 1962", "city": "Saint-Étienne-de-Fursac", "region":"Limousin", "country":"France", "lat":46.145381, "lon":1.512119},
{"name":"Place du 19 Mars 1962", "city": "Saint-Sulpice-le-Guérétois", "region":"Limousin", "country":"France", "lat":46.199510, "lon":1.830220},
{"name":"Rue 19 Mars 1962", "city": "Agonac", "region":"Aquitaine", "country":"France", "lat":45.288736, "lon":0.749903},
{"name":"Place du 30 Mars 1944", "city": "La Bachellerie", "region":"Aquitaine", "country":"France", "lat":45.145351, "lon":1.153716},
{"name":"Rue du 19 Mars 1962 et des Anciens AFN", "city": "Beaumont-du-Périgord", "region":"Aquitaine", "country":"France", "lat":44.772917, "lon":0.768866},
{"name":"Rue du 19 Mars 1962", "city": "Boulazac", "region":"Aquitaine", "country":"France", "lat":45.176614, "lon":0.752262},
{"name":"Rue du 19 Mars 1962", "city": "Champcevinel", "region":"Aquitaine", "country":"France", "lat":45.198650, "lon":0.727008},
{"name":"Rue du 19 Mars 1962", "city": "Coulounieix-Chamiers", "region":"Aquitaine", "country":"France", "lat":45.171277, "lon":0.691755},
{"name":"Rue du 19 Mars 1962", "city": "Javerlhac-et-la-Chapelle-Saint-Robert", "region":"Aquitaine", "country":"France", "lat":45.568975, "lon":0.559696},
{"name":"Rue du 19 Mars 1962", "city": "Lalinde", "region":"Aquitaine", "country":"France", "lat":44.839929, "lon":0.737907},
{"name":"Rue du 19 Mars 1962", "city": "Mareuil", "region":"Aquitaine", "country":"France", "lat":45.445174, "lon":0.445689},
{"name":"Rue du 19 Mars 1962", "city": "Nontron", "region":"Aquitaine", "country":"France", "lat":45.537161, "lon":0.665882},
{"name":"Rue du 19 Mars 1962", "city": "Pazayac", "region":"Aquitaine", "country":"France", "lat":45.128113, "lon":1.379869},
{"name":"Rue du 19 Mars 1962", "city": "Piégut-Pluviers", "region":"Aquitaine", "country":"France", "lat":45.620010, "lon":0.698265},
{"name":"Rue du 19 Mars 1962", "city": "Razac-sur-l'Isle", "region":"Aquitaine", "country":"France", "lat":45.159431, "lon":0.612850},
{"name":"Rue du 26 Mars 1944", "city": "Ribérac", "region":"Aquitaine", "country":"France", "lat":45.251284, "lon":0.339546},
{"name":"Rue du 19 Mars 1962", "city": "Saint-Laurent-sur-Manoire", "region":"Aquitaine", "country":"France", "lat":45.148665, "lon":0.795136},
{"name":"Place du 19 Mars 1962", "city": "Savignac-Lédrier", "region":"Aquitaine", "country":"France", "lat":45.363460, "lon":1.219548},
{"name":"Place du 19 Mars 1962", "city": "Terrasson-Lavilledieu", "region":"Aquitaine", "country":"France", "lat":45.130807, "lon":1.285757},
{"name":"Rue du 19 Mars 1962", "city": "Le Buisson-de-Cadouin", "region":"Aquitaine", "country":"France", "lat":44.844480, "lon":0.910965},
{"name":"Rue du 19 Mars 1962", "city": "Champagnac-de-Belair", "region":"Aquitaine", "country":"France", "lat":45.390271, "lon":0.699961},
{"name":"Rue du 19 Mars 1962", "city": "Chancelade", "region":"Aquitaine", "country":"France", "lat":45.205207, "lon":0.668098},
{"name":"Rue du 19 Mars 1962", "city": "Château-l'Évêque", "region":"Aquitaine", "country":"France", "lat":45.245414, "lon":0.685750},
{"name":"Rue du 19 Mars 1962", "city": "La Coquille", "region":"Aquitaine", "country":"France", "lat":45.537191, "lon":0.974946},
{"name":"Rue du 19 Mars", "city": "Coulaures", "region":"Aquitaine", "country":"France", "lat":45.307286, "lon":0.977631},
{"name":"Rue du 19 Mars 1962", "city": "Excideuil", "region":"Aquitaine", "country":"France", "lat":45.338733, "lon":1.051302},
{"name":"Rue du 19 Mars 1962", "city": "Hautefort", "region":"Aquitaine", "country":"France", "lat":45.265646, "lon":1.128401},
{"name":"Rue du 19 Mars 1962", "city": "Montpon-Ménestérol", "region":"Aquitaine", "country":"France", "lat":45.006085, "lon":0.162222},
{"name":"Avenue du 19 Mars 1962", "city": "Notre-Dame-de-Sanilhac", "region":"Aquitaine", "country":"France", "lat":45.122277, "lon":0.716437},
{"name":"Rue du 19 Mars 1962", "city": "Prigonrieux", "region":"Aquitaine", "country":"France", "lat":44.855304, "lon":0.400278},
{"name":"Place du 31 Mars 1944", "city": "Rouffignac-Saint-Cernin-de-Reilhac", "region":"Aquitaine", "country":"France", "lat":45.047154, "lon":0.977860},
{"name":"Rue du 19 Mars 1962", "city": "Saint-Médard-de-Mussidan", "region":"Aquitaine", "country":"France", "lat":45.035390, "lon":0.351515},
{"name":"Rue du 19 Mars 1962", "city": "Trélissac", "region":"Aquitaine", "country":"France", "lat":45.203266, "lon":0.779022},
{"name":"Rue du 19 Mars 1962", "city": "Varaignes", "region":"Aquitaine", "country":"France", "lat":45.598170, "lon":0.531405},
{"name":"Avenue du 19 Mars 1962", "city": "Villars", "region":"Aquitaine", "country":"France", "lat":45.414906, "lon":0.749948},
{"name":"Place du 19 Mars 1962", "city": "Villefranche-du-Périgord", "region":"Aquitaine", "country":"France", "lat":44.631272, "lon":1.076757},
{"name":"Rue du 19 Mars 1962", "city": "Fesches-le-Châtel", "region":"Franche-Comté", "country":"France", "lat":47.524020, "lon":6.897099},
{"name":"Place du 19 Mars 1962", "city": "Audincourt", "region":"Franche-Comté", "country":"France", "lat":47.487853, "lon":6.843190},
{"name":"Place du 19 Mars 1962", "city": "Besançon", "region":"Franche-Comté", "country":"France", "lat":47.236998, "lon":6.014827},
{"name":"Place du 19 Mars 1962", "city": "Mouthe", "region":"Franche-Comté", "country":"France", "lat":46.712701, "lon":6.194177},
{"name":"Place du 19 Mars 1962", "city": "Buis-les-Baronnies", "region":"Rhône-Alpes", "country":"France", "lat":44.275675, "lon":5.271538},
{"name":"Place du 19 mars 1962", "city": "Claveyson", "region":"Rhône-Alpes", "country":"France", "lat":45.180999, "lon":4.929405},
{"name":"Rue du 19 Mars 1962", "city": "Anneyron", "region":"Rhône-Alpes", "country":"France", "lat":45.269280, "lon":4.882067},
{"name":"Rue du 19 Mars 1962", "city": "Aouste-sur-Sye", "region":"Rhône-Alpes", "country":"France", "lat":44.716270, "lon":5.041865},
{"name":"Rue du 19 Mars 1962", "city": "Beaumont-lès-Valence", "region":"Rhône-Alpes", "country":"France", "lat":44.864956, "lon":4.943856},
{"name":"Place du 19 Mars 1962", "city": "Beauregard-Baret", "region":"Rhône-Alpes", "country":"France", "lat":45.015235, "lon":5.151253},
{"name":"Rue du 19 Mars 1962", "city": "Bourg-de-Péage", "region":"Rhône-Alpes", "country":"France", "lat":45.028818, "lon":5.059740},
{"name":"Rue du 19 Mars 1962", "city": "Chabeuil", "region":"Rhône-Alpes", "country":"France", "lat":44.894234, "lon":5.016024},
{"name":"Place du 19 Mars 1962", "city": "Chatuzange-le-Goubet", "region":"Rhône-Alpes", "country":"France", "lat":45.006935, "lon":5.090590},
{"name":"Impasse du 19 Mars 1962", "city": "Chatuzange-le-Goubet", "region":"Rhône-Alpes", "country":"France", "lat":45.032557, "lon":5.082017},
{"name":"Rue du 19 Mars 1962", "city": "Chavannes", "region":"Rhône-Alpes", "country":"France", "lat":45.102431, "lon":4.924885},
{"name":"Rue du 19 Mars 1962", "city": "Étoile-sur-Rhône", "region":"Rhône-Alpes", "country":"France", "lat":44.836806, "lon":4.896166},
{"name":"Place du 19 Mars 1962", "city": "Les Granges-Gontardes", "region":"Rhône-Alpes", "country":"France", "lat":44.418453, "lon":4.764061},
{"name":"Rue du 19 Mars 1962", "city": "Livron-sur-Drôme", "region":"Rhône-Alpes", "country":"France", "lat":44.774783, "lon":4.839467},
{"name":"Rue du 19 Mars 1962", "city": "Malissard", "region":"Rhône-Alpes", "country":"France", "lat":44.900860, "lon":4.949920},
{"name":"Rue du 19 Mars 1962", "city": "Portes-lès-Valence", "region":"Rhône-Alpes", "country":"France", "lat":44.877730, "lon":4.873687},
{"name":"Rue du 19 Mars 1962", "city": "Romans-sur-Isère", "region":"Rhône-Alpes", "country":"France", "lat":45.056702, "lon":5.059055},
{"name":"Place du 19 Mars 1962", "city": "Saint-Barthélemy-de-Vals", "region":"Rhône-Alpes", "country":"France", "lat":45.169925, "lon":4.871868},
{"name":"Rue du 19 Mars 1962", "city": "Saint-Donat-sur-l'Herbasse", "region":"Rhône-Alpes", "country":"France", "lat":45.118263, "lon":4.979150},
{"name":"Rue du 19 Mars 1962", "city": "Saint-Rambert-d'Albon", "region":"Rhône-Alpes", "country":"France", "lat":45.296212, "lon":4.821699},
{"name":"Place du 19 Mars 1962", "city": "Saint-Sorlin-en-Valloire", "region":"Rhône-Alpes", "country":"France", "lat":45.288966, "lon":4.950072},
{"name":"Place du 19 Mars 1962", "city": "Jaillans", "region":"Rhône-Alpes", "country":"France", "lat":45.049066, "lon":5.158403},
{"name":"Place du 19 Mars 1962", "city": "Albon", "region":"Rhône-Alpes", "country":"France", "lat":45.244708, "lon":4.847497},
{"name":"Place du 19 mars 1962", "city": "Châteauneuf-de-Galaure", "region":"Rhône-Alpes", "country":"France", "lat":45.229962, "lon":4.956830},
{"name":"Rue du 19 Mars 1962", "city": "Chatuzange-le-Goubet", "region":"Rhône-Alpes", "country":"France", "lat":45.026796, "lon":5.088659},
{"name":"Rue du 19 Mars 1962", "city": "Génissieux", "region":"Rhône-Alpes", "country":"France", "lat":45.083667, "lon":5.086696},
{"name":"Rue du 19 Mars 1962", "city": "Hostun", "region":"Rhône-Alpes", "country":"France", "lat":45.035511, "lon":5.209100},
{"name":"Place du 19 Mars 1962", "city": "Malataverne", "region":"Rhône-Alpes", "country":"France", "lat":44.485243, "lon":4.751830},
{"name":"Rue du 19 Mars 1962", "city": "Montélimar", "region":"Rhône-Alpes", "country":"France", "lat":44.545440, "lon":4.754057},
{"name":"Place du 19 Mars 1962", "city": "La Motte-de-Galaure", "region":"Rhône-Alpes", "country":"France", "lat":45.197103, "lon":4.905968},
{"name":"Rue du 19 Mars 1962", "city": "Puy-Saint-Martin", "region":"Rhône-Alpes", "country":"France", "lat":44.627741, "lon":4.972814},
{"name":"Rue du 19 Mars 1962", "city": "Ratières", "region":"Rhône-Alpes", "country":"France", "lat":45.181819, "lon":4.967990},
{"name":"Rue du 19 Mars 1962", "city": "Saillans", "region":"Rhône-Alpes", "country":"France", "lat":44.698450, "lon":5.193445},
{"name":"Place du 19 Mars 1962", "city": "Tain-l'Hermitage", "region":"Rhône-Alpes", "country":"France", "lat":45.071889, "lon":4.839747},
{"name":"Rue du 19 Mars 1962", "city": "Breteuil", "region":"Haute-Normandie", "country":"France", "lat":48.841860, "lon":0.906875},
{"name":"Rue du 19 Mars 1962", "city": "Évreux", "region":"Haute-Normandie", "country":"France", "lat":49.036094, "lon":1.130757},
{"name":"Rue du 19 Mars 1962", "city": "Igoville", "region":"Haute-Normandie", "country":"France", "lat":49.318112, "lon":1.142908},
{"name":"Rue du 19 Mars 1962", "city": "Léry", "region":"Haute-Normandie", "country":"France", "lat":49.281481, "lon":1.202516},
{"name":"Place du Dix Neuf Mars 1962", "city": "Manneville-sur-Risle", "region":"Haute-Normandie", "country":"France", "lat":49.353213, "lon":0.562836},
{"name":"Rue du Dix Neuf Mars 1962", "city": "Pont-de-l'Arche", "region":"Haute-Normandie", "country":"France", "lat":49.301016, "lon":1.140350},
{"name":"Rue du 19 Mars 1962", "city": "Prey", "region":"Haute-Normandie", "country":"France", "lat":48.957481, "lon":1.218104},
{"name":"Rue du 19 Mars 1962", "city": "Saint-André-de-l'Eure", "region":"Haute-Normandie", "country":"France", "lat":48.903727, "lon":1.281496},
{"name":"Rue du 19 Mars 1962", "city": "Alizay", "region":"Haute-Normandie", "country":"France", "lat":49.318255, "lon":1.162987},
{"name":"Place du 19 Mars 1962", "city": "Lucé", "region":"Centre", "country":"France", "lat":48.439932, "lon":1.467402},
{"name":"Place du 19 Mars 1962", "city": "Anet", "region":"Centre", "country":"France", "lat":48.848614, "lon":1.431414},
{"name":"Rue du 19 Mars 1962", "city": "Anet", "region":"Centre", "country":"France", "lat":48.848182, "lon":1.431258},
{"name":"Rue du 19 Mars 1962", "city": "Authon-du-Perche", "region":"Centre", "country":"France", "lat":48.195985, "lon":0.885040},
{"name":"Rue du 19 Mars 1962", "city": "La Bazoche-Gouet", "region":"Centre", "country":"France", "lat":48.140107, "lon":0.979098},
{"name":"Rue du 19 Mars 1962", "city": "Beauvilliers", "region":"Centre", "country":"France", "lat":48.314215, "lon":1.630114},
{"name":"Rue du 19 Mars", "city": "Billancelles", "region":"Centre", "country":"France", "lat":48.486509, "lon":1.216473},
{"name":"Rue du 19 Mars 1962", "city": "Brezolles", "region":"Centre", "country":"France", "lat":48.688311, "lon":1.081056},
{"name":"Rue du 19 Mars 1962", "city": "Bû", "region":"Centre", "country":"France", "lat":48.794753, "lon":1.491488},
{"name":"Rue du 19 Mars 1962", "city": "Châteaudun", "region":"Centre", "country":"France", "lat":48.083862, "lon":1.346325},
{"name":"Rue du 19 Mars", "city": "Chuisnes", "region":"Centre", "country":"France", "lat":48.447862, "lon":1.205672},
{"name":"Rue du 19 Mars 1962", "city": "Cloyes-sur-le-Loir", "region":"Centre", "country":"France", "lat":48.000911, "lon":1.239617},
{"name":"Rue du 19 Mars 1962", "city": "Coltainville", "region":"Centre", "country":"France", "lat":48.503725, "lon":1.613108},
{"name":"Rue du 19 Mars 1962", "city": "Le Coudray", "region":"Centre", "country":"France", "lat":48.426430, "lon":1.509784},
{"name":"Rue du 19 Mars 1962", "city": "Courville-sur-Eure", "region":"Centre", "country":"France", "lat":48.448098, "lon":1.237640},
{"name":"Rue du 19 Mars 1962", "city": "Dampierre-sous-Brou", "region":"Centre", "country":"France", "lat":48.212593, "lon":1.111885},
{"name":"Rue du 19 Mars", "city": "Fontaine-la-Guyon", "region":"Centre", "country":"France", "lat":48.472071, "lon":1.301673},
{"name":"Impasse du 19 Mars 1962", "city": "Frazé", "region":"Centre", "country":"France", "lat":48.264599, "lon":1.099595},
{"name":"Rue du 19 Mars 1962", "city": "Frazé", "region":"Centre", "country":"France", "lat":48.265908, "lon":1.102213},
{"name":"Rue du 19 Mars 1962", "city": "Fresnay-l'Évêque", "region":"Centre", "country":"France", "lat":48.264359, "lon":1.820170},
{"name":"Rue du Dix Neuf Mars 1962", "city": "Illiers-Combray", "region":"Centre", "country":"France", "lat":48.296142, "lon":1.251210},
{"name":"Rue du 19 Mars 1962", "city": "Janville", "region":"Centre", "country":"France", "lat":48.204378, "lon":1.887518},
{"name":"Rue du 19 Mars 1962", "city": "La Loupe", "region":"Centre", "country":"France", "lat":48.469440, "lon":1.023741},
{"name":"Rue du 19 Mars 1962", "city": "Luray", "region":"Centre", "country":"France", "lat":48.722991, "lon":1.390602},
{"name":"Rue du 19 Mars 1962", "city": "Mainvilliers", "region":"Centre", "country":"France", "lat":48.450536, "lon":1.464596},
{"name":"Rue du 19 Mars", "city": "Nogent-le-Rotrou", "region":"Centre", "country":"France", "lat":48.316576, "lon":0.834882},
{"name":"Impasse du 19 Mars 1962", "city": "Saint-Georges-sur-Eure", "region":"Centre", "country":"France", "lat":48.415444, "lon":1.355701},
{"name":"Rue du 19 Mars 1962", "city": "Saint-Georges-sur-Eure", "region":"Centre", "country":"France", "lat":48.414745, "lon":1.358021},
{"name":"Impasse du 19 Mars 1962", "city": "Saint-Rémy-sur-Avre", "region":"Centre", "country":"France", "lat":48.757464, "lon":1.227588},
{"name":"Rue du 19 Mars 1962", "city": "Sainville", "region":"Centre", "country":"France", "lat":48.417200, "lon":1.881374},
{"name":"Rue du 19 Mars", "city": "Souancé-au-Perche", "region":"Centre", "country":"France", "lat":48.266505, "lon":0.856698},
{"name":"Rue du Dix Neuf Mars 1962", "city": "Toury", "region":"Centre", "country":"France", "lat":48.191653, "lon":1.929092},
{"name":"Impasse du 19 Mars 1962", "city": "Trizay-lès-Bonneval", "region":"Centre", "country":"France", "lat":48.199830, "lon":1.330292},
{"name":"Rue du 19 Mars 1962", "city": "Viabon", "region":"Centre", "country":"France", "lat":48.216022, "lon":1.699621},
{"name":"Place du 19 Mars 1962", "city": "Voves", "region":"Centre", "country":"France", "lat":48.256914, "lon":1.658371},
{"name":"Rue du 19 Mars 1962", "city": "Yèvres", "region":"Centre", "country":"France", "lat":48.212725, "lon":1.188476},
{"name":"Rue du 19 Mars 1962", "city": "Maintenon", "region":"Centre", "country":"France", "lat":48.579965, "lon":1.570613},
{"name":"Allée du 19 Mars 1962", "city": "Pierres", "region":"Centre", "country":"France", "lat":48.590937, "lon":1.568566},
{"name":"Le Bois de Marsaune", "city": "Pézy", "region":"Centre", "country":"France", "lat":48.302786, "lon":1.572374},
{"name":"Le Bois de Marsaune", "city": "Villeneuve-Saint-Nicolas", "region":"Centre", "country":"France", "lat":48.29786, "lon":1.572045},
{"name":"Place du 19 mars 1962", "city": "Berrien", "region":"Bretagne", "country":"France", "lat":48.402640, "lon":-3.752238},
{"name":"Place du 19 Mars 1962", "city": "Collorec", "region":"Bretagne", "country":"France", "lat":48.286133, "lon":-3.774507},
{"name":"Place du 19 mars 1962", "city": "Plougonven", "region":"Bretagne", "country":"France", "lat":48.521915, "lon":-3.712353},
{"name":"RUE DU 19 MARS 1962", "city": "Plouzané", "region":"Bretagne", "country":"France", "lat":48.371750, "lon":-4.593976},
{"name":"Place du 19 Mars 1962", "city": "Quéménéven", "region":"Bretagne", "country":"France", "lat":48.115562, "lon":-4.120370},
{"name":"Rue du 19 Mars 1962", "city": "Audierne", "region":"Bretagne", "country":"France", "lat":48.021545, "lon":-4.547646},
{"name":"Place du 19 Mars 1962", "city": "Bolazec", "region":"Bretagne", "country":"France", "lat":48.444025, "lon":-3.584746},
{"name":"Rue du 8 Mars", "city": "Brest", "region":"Bretagne", "country":"France", "lat":48.419722, "lon":-4.512099},
{"name":"Rue du 19 Mars 1962", "city": "Camaret-sur-Mer", "region":"Bretagne", "country":"France", "lat":48.273453, "lon":-4.596235},
{"name":"Rue du 19 Mars 1962", "city": "Châteaulin", "region":"Bretagne", "country":"France", "lat":48.198190, "lon":-4.080341},
{"name":"Rue du 19 Mars 1962", "city": "Cléden-Poher", "region":"Bretagne", "country":"France", "lat":48.235670, "lon":-3.669816},
{"name":"Rue du 19 Mars 1962", "city": "Le Cloître-Pleyben", "region":"Bretagne", "country":"France", "lat":48.257597, "lon":-3.891545},
{"name":"Rue 19 Mars 1962", "city": "Douarnenez", "region":"Bretagne", "country":"France", "lat":48.083057, "lon":-4.320698},
{"name":"Rue du 19 Mars 1962", "city": "Esquibien", "region":"Bretagne", "country":"France", "lat":48.025872, "lon":-4.564194},
{"name":"Rue du 19 Mars 1962", "city": "Guiclan", "region":"Bretagne", "country":"France", "lat":48.551243, "lon":-3.962577},
{"name":"Rue du 19 Mars 1962", "city": "Guilers", "region":"Bretagne", "country":"France", "lat":48.430158, "lon":-4.557953},
{"name":"Impasse du 19 Mars 1962", "city": "Huelgoat", "region":"Bretagne", "country":"France", "lat":48.369949, "lon":-3.747687},
{"name":"Place du 19 Mars 1962", "city": "Landeleau", "region":"Bretagne", "country":"France", "lat":48.228871, "lon":-3.729871},
{"name":"Rue du 19 Mars 1962", "city": "Landerneau", "region":"Bretagne", "country":"France", "lat":48.462592, "lon":-4.264153},
{"name":"Place du 19 Mars 1962", "city": "Landudec", "region":"Bretagne", "country":"France", "lat":48.000387, "lon":-4.337014},
{"name":"Rue du 19 Mars 1962", "city": "Lanmeur", "region":"Bretagne", "country":"France", "lat":48.639218, "lon":-3.716882},
{"name":"Rue du 19 Mars 1962", "city": "Loctudy", "region":"Bretagne", "country":"France", "lat":47.831488, "lon":-4.185495},
{"name":"Place du 19 Mars 1962", "city": "Motreff", "region":"Bretagne", "country":"France", "lat":48.201672, "lon":-3.554980},
{"name":"Rue du 19 Mars 1962", "city": "Penmarc'h", "region":"Bretagne", "country":"France", "lat":47.814122, "lon":-4.344215},
{"name":"Rue du 19 Mars 1962", "city": "Plobannalec-Lesconil", "region":"Bretagne", "country":"France", "lat":47.805570, "lon":-4.217391},
{"name":"Place du 19 Mars 1962", "city": "Plobannalec-Lesconil", "region":"Bretagne", "country":"France", "lat":47.822327, "lon":-4.227716},
{"name":"Rue du 19 Mars 1962", "city": "Plogoff", "region":"Bretagne", "country":"France", "lat":48.032471, "lon":-4.663005},
{"name":"Allée du 19 Mars 1962", "city": "Plomelin", "region":"Bretagne", "country":"France", "lat":47.934979, "lon":-4.152101},
{"name":"Place du 19 mars 1962", "city": "Plonéis", "region":"Bretagne", "country":"France", "lat":48.017179, "lon":-4.210295},
{"name":"Place du 19 Mars 1962", "city": "Plonéour-Lanvern", "region":"Bretagne", "country":"France", "lat":47.904148, "lon":-4.281840},
{"name":"Rue du 19 Mars 1962", "city": "Plougoulm", "region":"Bretagne", "country":"France", "lat":48.669797, "lon":-4.050041},
{"name":"Place du 19 Mars 1962", "city": "Plounéour-Ménez", "region":"Bretagne", "country":"France", "lat":48.438849, "lon":-3.892783},
{"name":"Rue du 19 Mars 1962", "city": "Plounéventer", "region":"Bretagne", "country":"France", "lat":48.511352, "lon":-4.209099},
{"name":"Rue du 19 Mars 1962", "city": "Plourin-lès-Morlaix", "region":"Bretagne", "country":"France", "lat":48.536785, "lon":-3.789451},
{"name":"Rue du 19 Mars 1962", "city": "Plouzané", "region":"Bretagne", "country":"France", "lat":48.371979, "lon":-4.591555},
{"name":"Rue du 19 Mars 1962", "city": "Plozévet", "region":"Bretagne", "country":"France", "lat":47.987515, "lon":-4.430186},
{"name":"Rue du 19 Mars 1962", "city": "Pont-Croix", "region":"Bretagne", "country":"France", "lat":48.048679, "lon":-4.485019},
{"name":"Rue du 19 Mars 1962", "city": "Pont-l'Abbé", "region":"Bretagne", "country":"France", "lat":47.862366, "lon":-4.226240},
{"name":"Rue du 19 Mars 1962", "city": "Pouldreuzic", "region":"Bretagne", "country":"France", "lat":47.954541, "lon":-4.361665},
{"name":"Rue du 19 Mars 1962", "city": "Poullan-sur-Mer", "region":"Bretagne", "country":"France", "lat":48.081988, "lon":-4.415011},