[{"id": "01035B027F","type": "place","name": "Combe Janvier","postcode": "01130","lat": "46.247045","lon": "5.771585","city": "Belleydoux","departement": "Ain", "region": "RhÃ´ne-Alpes", "importance": 0.0040},
{"id": "01102B071M","type": "place","name": "La Janviere","postcode": "01190","lat": "46.375812","lon": "4.945417","city": "Chevroux","departement": "Ain", "region": "RhÃ´ne-Alpes", "importance": 0.0096},
{"id": "021460010V","type": "street","name": "Rue de Janvier","postcode": "02330","lat": "49.014459","lon": "3.567457","city": "Celles-lÃ¨s-CondÃ©","departement": "Aisne", "region": "Picardie","importance": 0.0040 ,"housenumbers":{"1": {"lat": 49.012358,"lon": 3.569586},"10": {"lat": 49.014328,"lon": 3.567402},"12": {"lat": 49.014615,"lon": 3.567631},"15": {"lat": 49.014582,"lon": 3.567497},"4": {"lat": 49.013772,"lon": 3.567276},"6": {"lat": 49.013962,"lon": 3.567437},"8": {"lat": 49.014086,"lon": 3.567434},"9": {"lat": 49.013174,"lon": 3.567947}}},
{"id": "025100020Y","type": "street","name": "Rue de Janvier","postcode": "02330","lat": "49.023729","lon": "3.548523","city": "Monthurel","departement": "Aisne", "region": "Picardie","importance": 0.0077 ,"housenumbers":{"1": {"lat": 49.022666,"lon": 3.546357},"10": {"lat": 49.023544,"lon": 3.548235},"11": {"lat": 49.023297,"lon": 3.547643},"12": {"lat": 49.023626,"lon": 3.548398},"13": {"lat": 49.023581,"lon": 3.547854},"14": {"lat": 49.023689,"lon": 3.548532},"15": {"lat": 49.023663,"lon": 3.548305},"17": {"lat": 49.023742,"lon": 3.548444},"2": {"lat": 49.022621,"lon": 3.546702},"3": {"lat": 49.022811,"lon": 3.546912},"4": {"lat": 49.022891,"lon": 3.547187},"5": {"lat": 49.022873,"lon": 3.547027},"6": {"lat": 49.023002,"lon": 3.547679},"7": {"lat": 49.022930,"lon": 3.547130},"8": {"lat": 49.023278,"lon": 3.547745},"9": {"lat": 49.023008,"lon": 3.547244}}},
{"id": "027220065A","type": "street","name": "Rue Alphonse Janvier","postcode": "02200","lat": "49.384089","lon": "3.308370","city": "Soissons","departement": "Aisne", "region": "Picardie","importance": 0.3903 ,"housenumbers":{"1": {"lat": 49.382946,"lon": 3.308190},"10": {"lat": 49.383766,"lon": 3.308415},"11": {"lat": 49.383965,"lon": 3.308263},"12": {"lat": 49.383944,"lon": 3.308427},"13": {"lat": 49.384144,"lon": 3.308269},"14": {"lat": 49.384494,"lon": 3.308487},"15": {"lat": 49.384301,"lon": 3.308297},"16": {"lat": 49.384637,"lon": 3.308887},"17": {"lat": 49.384501,"lon": 3.308322},"18": {"lat": 49.384662,"lon": 3.309172},"19": {"lat": 49.384635,"lon": 3.308335},"2": {"lat": 49.382776,"lon": 3.308343},"20": {"lat": 49.384670,"lon": 3.309461},"21": {"lat": 49.384714,"lon": 3.308473},"22": {"lat": 49.384688,"lon": 3.309779},"23": {"lat": 49.384740,"lon": 3.308681},"25": {"lat": 49.384740,"lon": 3.308962},"27": {"lat": 49.384761,"lon": 3.309244},"29": {"lat": 49.384781,"lon": 3.309529},"3": {"lat": 49.383142,"lon": 3.308201},"31": {"lat": 49.384797,"lon": 3.309718},"33": {"lat": 49.384813,"lon": 3.310056},"35": {"lat": 49.384841,"lon": 3.310333},"37": {"lat": 49.384849,"lon": 3.310607},"4": {"lat": 49.382962,"lon": 3.308358},"5": {"lat": 49.383405,"lon": 3.308218},"6": {"lat": 49.383210,"lon": 3.308379},"7": {"lat": 49.383619,"lon": 3.308233},"8": {"lat": 49.383510,"lon": 3.308379},"9": {"lat": 49.383926,"lon": 3.308267}}},
{"id": "02280B092H","type": "place","name": "La Noujanvier","postcode": "02400","lat": "49.117898","lon": "3.469993","city": "Ã‰pieds","departement": "Aisne", "region": "Picardie", "importance": 0.0155},
{"id": "02510B032T","type": "place","name": "Janvier","postcode": "02330","lat": "49.033645","lon": "3.554627","city": "Monthurel","departement": "Aisne", "region": "Picardie", "importance": 0.0085},
{"id": "060790560W","type": "street","name": "Avenue Janvier Passero","postcode": "06210","lat": "43.552251","lon": "6.937632","city": "Mandelieu-la-Napoule","departement": "Alpes-Maritimes", "region": "Provence-Alpes-CÃ´te d'Azur","importance": 0.3134 ,"housenumbers":{"1012": {"lat": 43.555181,"lon": 6.939039},"1018": {"lat": 43.555256,"lon": 6.939072},"1028": {"lat": 43.555500,"lon": 6.939182},"1083": {"lat": 43.555639,"lon": 6.939501},"109": {"lat": 43.547527,"lon": 6.938523},"1101": {"lat": 43.555665,"lon": 6.939875},"13": {"lat": 43.546644,"lon": 6.938296},"131": {"lat": 43.547644,"lon": 6.938509},"166": {"lat": 43.547884,"lon": 6.938623},"172": {"lat": 43.548091,"lon": 6.938620},"195": {"lat": 43.548199,"lon": 6.938458},"200": {"lat": 43.548288,"lon": 6.938611},"21": {"lat": 43.546693,"lon": 6.938511},"214": {"lat": 43.548411,"lon": 6.938604},"222": {"lat": 43.548492,"lon": 6.938598},"229": {"lat": 43.548581,"lon": 6.938450},"229A": {"lat": 43.547955,"lon": 6.938487},"230": {"lat": 43.548615,"lon": 6.938584},"244": {"lat": 43.548711,"lon": 6.938569},"26": {"lat": 43.546606,"lon": 6.938590},"264": {"lat": 43.548960,"lon": 6.938719},"293": {"lat": 43.548767,"lon": 6.938363},"296": {"lat": 43.549164,"lon": 6.938561},"310": {"lat": 43.549282,"lon": 6.938566},"32": {"lat": 43.546679,"lon": 6.938598},"325": {"lat": 43.549578,"lon": 6.938424},"33": {"lat": 43.546749,"lon": 6.938516},"36": {"lat": 43.546825,"lon": 6.938615},"365": {"lat": 43.549788,"lon": 6.938433},"383": {"lat": 43.550010,"lon": 6.938444},"399": {"lat": 43.550107,"lon": 6.938450},"410": {"lat": 43.549560,"lon": 6.938554},"42": {"lat": 43.546903,"lon": 6.938620},"430": {"lat": 43.550878,"lon": 6.938191},"433": {"lat": 43.549996,"lon": 6.935556},"499": {"lat": 43.550662,"lon": 6.937656},"5": {"lat": 43.546620,"lon": 6.938445},"520": {"lat": 43.551187,"lon": 6.938352},"54": {"lat": 43.547009,"lon": 6.938618},"555": {"lat": 43.549403,"lon": 6.927976},"560": {"lat": 43.551376,"lon": 6.937825},"580": {"lat": 43.551580,"lon": 6.937780},"59": {"lat": 43.547015,"lon": 6.938535},"590": {"lat": 43.551636,"lon": 6.937768},"591": {"lat": 43.552041,"lon": 6.937580},"614": {"lat": 43.552023,"lon": 6.937829},"620": {"lat": 43.552024,"lon": 6.937817},"65": {"lat": 43.547092,"lon": 6.938496},"670": {"lat": 43.552482,"lon": 6.937726},"679": {"lat": 43.552273,"lon": 6.937552},"705": {"lat": 43.552525,"lon": 6.937566},"731": {"lat": 43.552979,"lon": 6.937630},"74": {"lat": 43.547163,"lon": 6.938616},"79": {"lat": 43.547259,"lon": 6.938499},"797": {"lat": 43.553360,"lon": 6.937784},"822": {"lat": 43.553495,"lon": 6.938091},"837": {"lat": 43.553848,"lon": 6.938174},"878": {"lat": 43.554094,"lon": 6.939516},"893": {"lat": 43.554172,"lon": 6.938490},"909": {"lat": 43.554323,"lon": 6.938617},"924": {"lat": 43.554612,"lon": 6.938829},"929": {"lat": 43.554593,"lon": 6.938750},"945": {"lat": 43.554620,"lon": 6.938696},"96": {"lat": 43.547439,"lon": 6.938673},"984": {"lat": 43.554854,"lon": 6.938955}}},
{"id": "060882882F","type": "street","name": "Rue Georges Janvier","postcode": "06000","lat": "43.712177","lon": "7.286437","city": "Nice","departement": "Alpes-Maritimes", "region": "Provence-Alpes-CÃ´te d'Azur","importance": 0.0783 },
{"id": "070100947N","type": "street","name": "Avenue Ferdinand Janvier","postcode": "07100","lat": "45.255615","lon": "4.668638","city": "Annonay","departement": "ArdÃ¨che", "region": "RhÃ´ne-Alpes","importance": 0.3111 ,"housenumbers":{"101": {"lat": 45.257694,"lon": 4.670105},"103": {"lat": 45.257794,"lon": 4.670060},"103bis": {"lat": 45.257876,"lon": 4.670083},"104": {"lat": 45.259304,"lon": 4.669506},"104A": {"lat": 45.259310,"lon": 4.669714},"104B": {"lat": 45.258635,"lon": 4.666462},"107": {"lat": 45.258119,"lon": 4.669933},"109": {"lat": 45.258291,"lon": 4.669866},"11": {"lat": 45.250330,"lon": 4.665786},"111": {"lat": 45.258408,"lon": 4.669804},"115": {"lat": 45.258845,"lon": 4.669548},"120": {"lat": 45.260912,"lon": 4.669405},"122": {"lat": 45.260962,"lon": 4.669381},"123": {"lat": 45.259217,"lon": 4.669318},"131": {"lat": 45.259868,"lon": 4.668898},"135": {"lat": 45.260317,"lon": 4.668482},"136": {"lat": 45.262483,"lon": 4.667619},"138": {"lat": 45.262736,"lon": 4.667555},"158": {"lat": 45.264398,"lon": 4.665628},"188": {"lat": 45.265572,"lon": 4.661674},"188ter": {"lat": 45.266051,"lon": 4.662144},"199": {"lat": 45.264830,"lon": 4.662626},"202": {"lat": 45.266294,"lon": 4.660631},"202A": {"lat": 45.266583,"lon": 4.660256},"209": {"lat": 45.265494,"lon": 4.661566},"59": {"lat": 45.254558,"lon": 4.667103},"6": {"lat": 45.249352,"lon": 4.665665},"6001": {"lat": 45.258877,"lon": 4.670973},"63": {"lat": 45.254819,"lon": 4.667433},"65": {"lat": 45.254894,"lon": 4.667539},"67": {"lat": 45.254960,"lon": 4.667636},"7": {"lat": 45.249605,"lon": 4.665370},"71": {"lat": 45.255391,"lon": 4.668220},"73": {"lat": 45.255443,"lon": 4.668289},"75": {"lat": 45.255530,"lon": 4.668407},"79": {"lat": 45.255758,"lon": 4.668626},"8": {"lat": 45.249623,"lon": 4.665819},"83": {"lat": 45.255967,"lon": 4.668924},"85": {"lat": 45.256088,"lon": 4.669076},"86": {"lat": 45.257931,"lon": 4.670200},"87": {"lat": 45.256496,"lon": 4.669346},"88": {"lat": 45.258467,"lon": 4.669978},"89": {"lat": 45.256497,"lon": 4.669716},"91": {"lat": 45.256628,"lon": 4.669868},"93": {"lat": 45.256862,"lon": 4.670034},"94": {"lat": 45.258741,"lon": 4.669787},"95": {"lat": 45.257112,"lon": 4.670066},"97": {"lat": 45.257346,"lon": 4.670131},"98": {"lat": 45.257444,"lon": 4.669806},"99": {"lat": 45.257494,"lon": 4.670175}}},
{"id": "070410144F","type": "street","name": "Rue Ferdinand Janvier","postcode": "07100","lat": "45.271656","lon": "4.649155","city": "Boulieu-lÃ¨s-Annonay","departement": "ArdÃ¨che", "region": "RhÃ´ne-Alpes","importance": 0.0445 ,"housenumbers":{"1000": {"lat": 45.271499,"lon": 4.649204},"765": {"lat": 45.267706,"lon": 4.653544},"906": {"lat": 45.270558,"lon": 4.648871},"996": {"lat": 45.269650,"lon": 4.649860}}},
{"id": "10406B071L","type": "place","name": "PrÃ© Janvier","postcode": "10390","lat": "48.235048","lon": "4.173054","city": "VerriÃ¨res","departement": "Aube", "region": "Champagne-Ardenne", "importance": 0.0146},
{"id": "132029603V","type": "street","name": "Place du 23 Janvier 1943","postcode": "13002","lat": "43.297897","lon": "5.370330","city": "Marseille","departement": "Bouches-du-RhÃ´ne", "region": "Provence-Alpes-CÃ´te d'Azur","importance": 0.1511 },
{"id": "144880665F","type": "street","name": "Rue Marthe Janvier","postcode": "14150","lat": "49.278894","lon": "-0.247020","city": "Ouistreham","departement": "Calvados", "region": "Basse-Normandie","importance": 0.2451 ,"housenumbers":{"10": {"lat": 49.278958,"lon": -0.247236},"11": {"lat": 49.278717,"lon": -0.245966},"12": {"lat": 49.278977,"lon": -0.247402},"14": {"lat": 49.278997,"lon": -0.247582},"17": {"lat": 49.278807,"lon": -0.246717},"2": {"lat": 49.278817,"lon": -0.246024},"21": {"lat": 49.278864,"lon": -0.247194},"4": {"lat": 49.278873,"lon": -0.246494},"5": {"lat": 49.278638,"lon": -0.245306},"7": {"lat": 49.278667,"lon": -0.245547},"8": {"lat": 49.278940,"lon": -0.247076}}},
{"id": "14194B125D","type": "place","name": "Cour Janvier","postcode": "14290","lat": "49.090444","lon": "0.383874","city": "Courtonne-les-Deux-Ã‰glises","departement": "Calvados", "region": "Basse-Normandie", "importance": 0.0071},
{"id": "14599B127V","type": "place","name": "Cour Janvier","postcode": "14290","lat": "49.09145","lon": "0.341972","city": "Saint-Julien-de-Mailloc","departement": "Calvados", "region": "Basse-Normandie", "importance": 0.0186},
{"id": "173060560Y","type": "street","name": "Boulevard du 5-Janvier-1945","postcode": "17200","lat": "45.625321","lon": "-1.027627","city": "Royan","departement": "Charente-Maritime", "region": "Poitou-Charentes","importance": 0.2586 ,"housenumbers":{"11": {"lat": 45.625365,"lon": -1.027363},"13": {"lat": 45.625394,"lon": -1.027287},"15": {"lat": 45.625426,"lon": -1.027203},"17": {"lat": 45.625452,"lon": -1.027136},"19": {"lat": 45.625492,"lon": -1.027032},"2": {"lat": 45.625154,"lon": -1.028233},"3": {"lat": 45.625080,"lon": -1.028080},"3bis": {"lat": 45.625198,"lon": -1.027796},"5": {"lat": 45.625288,"lon": -1.027562},"7": {"lat": 45.625317,"lon": -1.027486},"9": {"lat": 45.625343,"lon": -1.027421}}},
{"id": "18120B135Y","type": "place","name": "Les Janviers","postcode": "18140","lat": "47.134202","lon": "2.925151","city": "Jussy-le-Chaudrier","departement": "Cher", "region": "Centre", "importance": 0.0071},
{"id": "18183B026F","type": "place","name": "Les Janviers","postcode": "18210","lat": "46.797626","lon": "2.642714","city": "Le Pondy","departement": "Cher", "region": "Centre", "importance": 0.0015},
{"id": "212319250G","type": "street","name": "Rue du 23 Janvier","postcode": "21000","lat": "47.328242","lon": "5.036658","city": "Dijon","departement": "CÃ´te-d'Or", "region": "Bourgogne","importance": 0.5412 ,"housenumbers":{"1": {"lat": 47.328329,"lon": 5.035151},"10": {"lat": 47.328221,"lon": 5.036042},"11": {"lat": 47.328279,"lon": 5.036656},"12": {"lat": 47.328215,"lon": 5.036179},"13": {"lat": 47.328269,"lon": 5.036930},"14": {"lat": 47.328209,"lon": 5.036332},"15": {"lat": 47.328253,"lon": 5.037345},"16": {"lat": 47.328204,"lon": 5.036460},"17": {"lat": 47.328246,"lon": 5.037549},"18": {"lat": 47.328198,"lon": 5.036614},"18bis": {"lat": 47.328188,"lon": 5.036869},"19": {"lat": 47.328241,"lon": 5.037678},"2": {"lat": 47.328222,"lon": 5.035071},"20": {"lat": 47.328175,"lon": 5.037278},"21": {"lat": 47.328237,"lon": 5.037802},"22": {"lat": 47.328170,"lon": 5.037419},"23": {"lat": 47.328232,"lon": 5.037937},"24": {"lat": 47.328164,"lon": 5.037574},"25": {"lat": 47.328224,"lon": 5.038150},"26": {"lat": 47.328157,"lon": 5.037769},"28": {"lat": 47.328147,"lon": 5.038006},"3": {"lat": 47.328317,"lon": 5.035487},"3bis": {"lat": 47.328315,"lon": 5.035576},"4": {"lat": 47.328246,"lon": 5.035198},"5": {"lat": 47.328309,"lon": 5.035736},"5bis": {"lat": 47.328300,"lon": 5.036069},"6": {"lat": 47.328232,"lon": 5.035395},"7": {"lat": 47.328293,"lon": 5.036261},"7bis": {"lat": 47.328284,"lon": 5.036399},"8": {"lat": 47.328234,"lon": 5.035603},"9": {"lat": 47.328284,"lon": 5.036522}}},
{"id": "21508B009P","type": "place","name": "Bois de la Combe Janvier","postcode": "21370","lat": "47.40352","lon": "4.887054","city": "Prenois","departement": "CÃ´te-d'Or", "region": "Bourgogne", "importance": 0.0155},
{"id": "222330109J","type": "street","name": "Route HonorÃ© Janvier","postcode": "22860","lat": "48.748268","lon": "-3.082207","city": "Plourivo","departement": "CÃ´tes-d'Armor", "region": "Bretagne","importance": 0.0442 ,"housenumbers":{"1": {"lat": 48.747858,"lon": -3.080612},"11": {"lat": 48.748821,"lon": -3.083449},"12": {"lat": 48.748743,"lon": -3.083495},"16": {"lat": 48.748954,"lon": -3.083784},"2": {"lat": 48.747991,"lon": -3.081225},"3": {"lat": 48.747851,"lon": -3.080737},"4": {"lat": 48.748180,"lon": -3.081578},"5": {"lat": 48.748001,"lon": -3.081071},"7": {"lat": 48.748278,"lon": -3.081519},"8bis": {"lat": 48.747923,"lon": -3.082362},"9": {"lat": 48.748660,"lon": -3.082738}}},
{"id": "22080B546F","type": "place","name": "Prise Janvier","postcode": "22150","lat": "48.303556","lon": "-2.826299","city": "L'Hermitage-Lorge","departement": "CÃ´tes-d'Armor", "region": "Bretagne", "importance": 0.0080},
{"id": "22085B557W","type": "place","name": "Loguel Janvier","postcode": "22610","lat": "48.815408","lon": "-3.182939","city": "Kerbors","departement": "CÃ´tes-d'Armor", "region": "Bretagne", "importance": 0.0040},
{"id": "22085B752H","type": "place","name": "Parc Janvier","postcode": "22610","lat": "48.815643","lon": "-3.181293","city": "Kerbors","departement": "CÃ´tes-d'Armor", "region": "Bretagne", "importance": 0.0040},
{"id": "22176B917S","type": "place","name": "Les Cotes Janvier","postcode": "22960","lat": "48.426101","lon": "-2.714812","city": "PlÃ©dran","departement": "CÃ´tes-d'Armor", "region": "Bretagne", "importance": 0.0269},
{"id": "22176C344F","type": "place","name": "Les Grandes Cotes Janvier","postcode": "22960","lat": "48.426479","lon": "-2.714392","city": "PlÃ©dran","departement": "CÃ´tes-d'Armor", "region": "Bretagne", "importance": 0.0269},
{"id": "22176D254V","type": "place","name": "Les Pres Janvier","postcode": "22960","lat": "48.425525","lon": "-2.715107","city": "PlÃ©dran","departement": "CÃ´tes-d'Armor", "region": "Bretagne", "importance": 0.0269},
{"id": "22188B168A","type": "place","name": "Clos Janvier","postcode": "22170","lat": "48.5122","lon": "-2.884854","city": "Plerneuf","departement": "CÃ´tes-d'Armor", "region": "Bretagne", "importance": 0.0104},
{"id": "22232B385V","type": "place","name": "Le Clos Janvier","postcode": "22410","lat": "48.646059","lon": "-2.8505","city": "Plourhan","departement": "CÃ´tes-d'Armor", "region": "Bretagne", "importance": 0.0481},
{"id": "22240D800K","type": "place","name": "Le PrÃ© Janvier","postcode": "22250","lat": "48.243773","lon": "-2.201695","city": "Plumaugat","departement": "CÃ´tes-d'Armor", "region": "Bretagne", "importance": 0.0111},
{"id": "22340C045T","type": "place","name": "Parc An Janvier","postcode": "22140","lat": "48.685187","lon": "-3.413322","city": "TonquÃ©dec","departement": "CÃ´tes-d'Armor", "region": "Bretagne", "importance": 0.0104},
{"id": "24356B266V","type": "place","name": "Janvier","postcode": "24580","lat": "45.052804","lon": "0.928677","city": "Rouffignac-Saint-Cernin-de-Reilhac","departement": "Dordogne", "region": "Aquitaine", "importance": 0.0141},
{"id": "250560180W","type": "street","name": "Rue Antide Janvier","postcode": "25000","lat": "47.236894","lon": "6.015130","city": "BesanÃ§on","departement": "Doubs", "region": "Franche-ComtÃ©","importance": 0.4323 ,"housenumbers":{"3": {"lat": 47.236501,"lon": 6.015154},"5": {"lat": 47.236782,"lon": 6.015089},"6": {"lat": 47.237104,"lon": 6.015194}}},
{"id": "273160269F","type": "street","name": "Impasse des Janviers","postcode": "27350","lat": "49.404000","lon": "0.754858","city": "Hauville","departement": "Eure", "region": "Haute-Normandie","importance": 0.0057 ,"housenumbers":{"1": {"lat": 49.404856,"lon": 0.755048}}},
{"id": "273160270G","type": "street","name": "Rue des Janviers","postcode": "27350","lat": "49.404308","lon": "0.752671","city": "Hauville","departement": "Eure", "region": "Haute-Normandie","importance": 0.0367 ,"housenumbers":{"1": {"lat": 49.404856,"lon": 0.755048},"10": {"lat": 49.402326,"lon": 0.743316},"11": {"lat": 49.402952,"lon": 0.747968},"12": {"lat": 49.402321,"lon": 0.743004},"14": {"lat": 49.402309,"lon": 0.742662},"16": {"lat": 49.402352,"lon": 0.742188},"2": {"lat": 49.403213,"lon": 0.748863},"2ter": {"lat": 49.403630,"lon": 0.748254},"3": {"lat": 49.404152,"lon": 0.751953},"4": {"lat": 49.402846,"lon": 0.747329},"5": {"lat": 49.402457,"lon": 0.750344},"6": {"lat": 49.402370,"lon": 0.745317},"6bis": {"lat": 49.402348,"lon": 0.745053},"7": {"lat": 49.402184,"lon": 0.750742},"8": {"lat": 49.402332,"lon": 0.743798},"9": {"lat": 49.402111,"lon": 0.750087}}},
{"id": "27316B034G","type": "place","name": "Les Janviers","postcode": "27350","lat": "49.403615","lon": "0.755878","city": "Hauville","departement": "Eure", "region": "Haute-Normandie", "importance": 0.0124},
{"id": "28298B055E","type": "place","name": "Les Janvieres","postcode": "28130","lat": "48.59687","lon": "1.552379","city": "Pierres","departement": "Eure-et-Loir", "region": "Centre", "importance": 0.0192},
{"id": "332840062A","type": "street","name": "Impasse Janvier","postcode": "33380","lat": "44.617402","lon": "-0.928578","city": "Mios","departement": "Gironde", "region": "Aquitaine","importance": 0.0641 ,"housenumbers":{"3": {"lat": 44.617998,"lon": -0.928657},"3bis": {"lat": 44.617203,"lon": -0.928806},"4": {"lat": 44.617006,"lon": -0.928272}}},
{"id": "332840059X","type": "street","name": "AllÃ©e de Janvier","postcode": "33380","lat": "44.617275","lon": "-0.928565","city": "Mios","departement": "Gironde", "region": "Aquitaine","importance": 0.0608 ,"housenumbers":{"10": {"lat": 44.617584,"lon": -0.928383},"10bis": {"lat": 44.617470,"lon": -0.928404},"3": {"lat": 44.617619,"lon": -0.928487},"3D": {"lat": 44.617477,"lon": -0.928655},"5": {"lat": 44.617837,"lon": -0.928434}}},
{"id": "341722707J","type": "street","name": "Rue Guillaume Janvier","postcode": "34000","lat": "43.596221","lon": "3.865662","city": "Montpellier","departement": "HÃ©rault", "region": "Languedoc-Roussillon","importance": 0.5638 ,"housenumbers":{"101": {"lat": 43.595698,"lon": 3.866576},"114": {"lat": 43.595852,"lon": 3.866550},"131": {"lat": 43.595819,"lon": 3.866281},"144": {"lat": 43.595752,"lon": 3.866792},"145": {"lat": 43.595960,"lon": 3.865848},"161": {"lat": 43.596474,"lon": 3.865531},"174": {"lat": 43.596075,"lon": 3.865916},"191": {"lat": 43.596343,"lon": 3.865547},"198": {"lat": 43.596336,"lon": 3.865731},"207": {"lat": 43.596435,"lon": 3.865308},"274": {"lat": 43.596884,"lon": 3.865277},"291": {"lat": 43.596834,"lon": 3.865101},"321": {"lat": 43.597001,"lon": 3.864810},"59": {"lat": 43.596961,"lon": 3.864844},"81": {"lat": 43.595501,"lon": 3.866997}}},
{"id": "352384740D","type": "street","name": "Avenue Jean Janvier","postcode": "35000","lat": "48.107093","lon": "-1.673292","city": "Rennes","departement": "Ille-et-Vilaine", "region": "Bretagne","importance": 0.6136 ,"housenumbers":{"1": {"lat": 48.109762,"lon": -1.673819},"10": {"lat": 48.106683,"lon": -1.673379},"11": {"lat": 48.107636,"lon": -1.673252},"12": {"lat": 48.106501,"lon": -1.673318},"13": {"lat": 48.107564,"lon": -1.673231},"14": {"lat": 48.106043,"lon": -1.673191},"15": {"lat": 48.107425,"lon": -1.673192},"16": {"lat": 48.105890,"lon": -1.673223},"17": {"lat": 48.107336,"lon": -1.673167},"18": {"lat": 48.105472,"lon": -1.673431},"19": {"lat": 48.107121,"lon": -1.673121},"2": {"lat": 48.108698,"lon": -1.674810},"21": {"lat": 48.107024,"lon": -1.673083},"22": {"lat": 48.105645,"lon": -1.673086},"23": {"lat": 48.106956,"lon": -1.673068},"24": {"lat": 48.105216,"lon": -1.672950},"25": {"lat": 48.106878,"lon": -1.673041},"26": {"lat": 48.105046,"lon": -1.672903},"27": {"lat": 48.106718,"lon": -1.672998},"28": {"lat": 48.104845,"lon": -1.672847},"29": {"lat": 48.106520,"lon": -1.672977},"3": {"lat": 48.109608,"lon": -1.673793},"30": {"lat": 48.104673,"lon": -1.672800},"31": {"lat": 48.106388,"lon": -1.672941},"32": {"lat": 48.104558,"lon": -1.672767},"33": {"lat": 48.106300,"lon": -1.672917},"35": {"lat": 48.106214,"lon": -1.672634},"37": {"lat": 48.106028,"lon": -1.672742},"39": {"lat": 48.105797,"lon": -1.672680},"4": {"lat": 48.107131,"lon": -1.673474},"41": {"lat": 48.105562,"lon": -1.672611},"41bis": {"lat": 48.105713,"lon": -1.672765},"45": {"lat": 48.105548,"lon": -1.672712},"47": {"lat": 48.105480,"lon": -1.672590},"47bis": {"lat": 48.105380,"lon": -1.672587},"49": {"lat": 48.105301,"lon": -1.672542},"5": {"lat": 48.109185,"lon": -1.673678},"53": {"lat": 48.105199,"lon": -1.672516},"55": {"lat": 48.105098,"lon": -1.672494},"57": {"lat": 48.105013,"lon": -1.672480},"59": {"lat": 48.104924,"lon": -1.672485},"6": {"lat": 48.106919,"lon": -1.673416},"6bis": {"lat": 48.106821,"lon": -1.673416},"7": {"lat": 48.108999,"lon": -1.673627},"8": {"lat": 48.106693,"lon": -1.673353},"9": {"lat": 48.108425,"lon": -1.673470},"9bis": {"lat": 48.108167,"lon": -1.673369}}},
{"id": "352387340E","type": "street","name": "Rue du PÃ¨re Janvier","postcode": "35000","lat": "48.102848","lon": "-1.681745","city": "Rennes","departement": "Ille-et-Vilaine", "region": "Bretagne","importance": 0.5139 ,"housenumbers":{"10": {"lat": 48.102948,"lon": -1.681802},"12": {"lat": 48.102846,"lon": -1.681850},"14": {"lat": 48.102773,"lon": -1.681857},"2": {"lat": 48.103167,"lon": -1.682350},"2bis": {"lat": 48.103127,"lon": -1.682202},"4": {"lat": 48.103104,"lon": -1.682103},"6": {"lat": 48.103093,"lon": -1.682042},"7": {"lat": 48.102870,"lon": -1.681635},"8": {"lat": 48.103070,"lon": -1.681851},"9": {"lat": 48.102565,"lon": -1.681629}}},
{"id": "352710140K","type": "street","name": "Rue Jean Janvier","postcode": "35420","lat": "48.506931","lon": "-1.244709","city": "Saint-Georges-de-Reintembault","departement": "Ille-et-Vilaine", "region": "Bretagne","importance": 0.0439 ,"housenumbers":{"1": {"lat": 48.508439,"lon": -1.243311},"10": {"lat": 48.508636,"lon": -1.243573},"11": {"lat": 48.508271,"lon": -1.243725},"12": {"lat": 48.508742,"lon": -1.243805},"13": {"lat": 48.508191,"lon": -1.243791},"14": {"lat": 48.508469,"lon": -1.243675},"15": {"lat": 48.507662,"lon": -1.243756},"16": {"lat": 48.508414,"lon": -1.243726},"17": {"lat": 48.507669,"lon": -1.244170},"18": {"lat": 48.508366,"lon": -1.243770},"19": {"lat": 48.507527,"lon": -1.244267},"2": {"lat": 48.508880,"lon": -1.243290},"20": {"lat": 48.508346,"lon": -1.243885},"21": {"lat": 48.507444,"lon": -1.244323},"22": {"lat": 48.507795,"lon": -1.244210},"23": {"lat": 48.507374,"lon": -1.244371},"24": {"lat": 48.507730,"lon": -1.244254},"25": {"lat": 48.507315,"lon": -1.244411},"26": {"lat": 48.507544,"lon": -1.244366},"28": {"lat": 48.506918,"lon": -1.244780},"33": {"lat": 48.507138,"lon": -1.244522},"34": {"lat": 48.506470,"lon": -1.245012},"35": {"lat": 48.506910,"lon": -1.244663},"35bis": {"lat": 48.506935,"lon": -1.244606},"36": {"lat": 48.506393,"lon": -1.245048},"37": {"lat": 48.506865,"lon": -1.244690},"38": {"lat": 48.506141,"lon": -1.245168},"40": {"lat": 48.506017,"lon": -1.245227},"41": {"lat": 48.506663,"lon": -1.244572},"44": {"lat": 48.505873,"lon": -1.245295},"45": {"lat": 48.506654,"lon": -1.244801},"5": {"lat": 48.508405,"lon": -1.243608},"51": {"lat": 48.506315,"lon": -1.244948},"52": {"lat": 48.505084,"lon": -1.245441},"59": {"lat": 48.505475,"lon": -1.245279},"61": {"lat": 48.505065,"lon": -1.245293},"61bis": {"lat": 48.505215,"lon": -1.245286},"63": {"lat": 48.505000,"lon": -1.245291},"65": {"lat": 48.504275,"lon": -1.244924},"8": {"lat": 48.508712,"lon": -1.243436},"9": {"lat": 48.508329,"lon": -1.243676}}},
{"id": "352940090F","type": "street","name": "Rue du 15 Janvier 1872","postcode": "35600","lat": "47.695659","lon": "-2.004279","city": "Sainte-Marie","departement": "Ille-et-Vilaine", "region": "Bretagne","importance": 0.0509 ,"housenumbers":{"1": {"lat": 47.695170,"lon": -2.001763},"10": {"lat": 47.695053,"lon": -2.000570},"12": {"lat": 47.695271,"lon": -2.000786},"14": {"lat": 47.695095,"lon": -2.000852},"16": {"lat": 47.695109,"lon": -2.000935},"18": {"lat": 47.695124,"lon": -2.001024},"2": {"lat": 47.694995,"lon": -1.999999},"20": {"lat": 47.695145,"lon": -2.001147},"22": {"lat": 47.695179,"lon": -2.001343},"24": {"lat": 47.695203,"lon": -2.001480},"26": {"lat": 47.695232,"lon": -2.001637},"28": {"lat": 47.695283,"lon": -2.001850},"3": {"lat": 47.695343,"lon": -2.002748},"30": {"lat": 47.695586,"lon": -2.002050},"32": {"lat": 47.695394,"lon": -2.002448},"34": {"lat": 47.695497,"lon": -2.003037},"36": {"lat": 47.695618,"lon": -2.003734},"36bis": {"lat": 47.696348,"lon": -2.003780},"4": {"lat": 47.695210,"lon": -2.000130},"40": {"lat": 47.695764,"lon": -2.004549},"42": {"lat": 47.695877,"lon": -2.005196},"44": {"lat": 47.696556,"lon": -2.006425},"46": {"lat": 47.697199,"lon": -2.006379},"48": {"lat": 47.696278,"lon": -2.007397},"5": {"lat": 47.695359,"lon": -2.003776},"50": {"lat": 47.696410,"lon": -2.008118},"52": {"lat": 47.696463,"lon": -2.008412},"54": {"lat": 47.697258,"lon": -2.008500},"6": {"lat": 47.695014,"lon": -2.000188},"6037": {"lat": 47.696332,"lon": -2.005569},"8": {"lat": 47.695022,"lon": -2.000266},"9": {"lat": 47.695641,"lon": -2.005260}}},
{"id": "352970520K","type": "street","name": "Rue du RÃ©vÃ©rend PÃ¨re Janvier","postcode": "35290","lat": "48.188937","lon": "-2.193683","city": "Saint-MÃ©en-le-Grand","departement": "Ille-et-Vilaine", "region": "Bretagne","importance": 0.2316 ,"housenumbers":{"1": {"lat": 48.189456,"lon": -2.194087},"11": {"lat": 48.188945,"lon": -2.193548},"13": {"lat": 48.188889,"lon": -2.193387},"13bis": {"lat": 48.189497,"lon": -2.193116},"15": {"lat": 48.188855,"lon": -2.193284},"17": {"lat": 48.188825,"lon": -2.193170},"19": {"lat": 48.188783,"lon": -2.192995},"2": {"lat": 48.189406,"lon": -2.194345},"3": {"lat": 48.189456,"lon": -2.194079},"4": {"lat": 48.189158,"lon": -2.194181},"5": {"lat": 48.189482,"lon": -2.193983},"6bis": {"lat": 48.189012,"lon": -2.194167},"7": {"lat": 48.189348,"lon": -2.194221},"9": {"lat": 48.189113,"lon": -2.194023}}},
{"id": "35018B549L","type": "place","name": "La Croix Janvier","postcode": "35420","lat": "48.423786","lon": "-1.093623","city": "La Bazouge-du-DÃ©sert","departement": "Ille-et-Vilaine", "region": "Bretagne", "importance": 0.0332},
{"id": "35031B630T","type": "place","name": "Courtil Janvier","postcode": "35340","lat": "48.169625","lon": "-1.372968","city": "La BouÃ«xiÃ¨re","departement": "Ille-et-Vilaine", "region": "Bretagne", "importance": 0.0222},
{"id": "35058B409K","type": "place","name": "Le Clos Janvier","postcode": "35630","lat": "48.284822","lon": "-1.850154","city": "La Chapelle-ChaussÃ©e","departement": "Ille-et-Vilaine", "region": "Bretagne", "importance": 0.0111},
{"id": "35059B190T","type": "place","name": "Le Clos Janvier","postcode": "35520","lat": "48.19215","lon": "-1.746377","city": "La Chapelle-des-Fougeretz","departement": "Ille-et-Vilaine", "region": "Bretagne", "importance": 0.0222},
{"id": "35059B265Z","type": "place","name": "Le Courtil Janvier","postcode": "35520","lat": "48.180975","lon": "-1.754479","city": "La Chapelle-des-Fougeretz","departement": "Ille-et-Vilaine", "region": "Bretagne", "importance": 0.0222},
{"id": "35064C015T","type": "place","name": "La Janvierie","postcode": "35660","lat": "47.697905","lon": "-1.917271","city": "La Chapelle-de-Brain","departement": "Ille-et-Vilaine", "region": "Bretagne", "importance": 0.0289},
{"id": "35071B177B","type": "place","name": "Le Champ Janvier","postcode": "35133","lat": "48.439547","lon": "-1.23046","city": "Le ChÃ¢tellier","departement": "Ille-et-Vilaine", "region": "Bretagne", "importance": 0.0052},
{"id": "35091B146F","type": "place","name": "Clos Janvier","postcode": "35290","lat": "48.218013","lon": "-2.154137","city": "Le Crouais","departement": "Ille-et-Vilaine", "region": "Bretagne", "importance": 0.0062},
{"id": "35101B853F","type": "place","name": "Le PrÃ© Janvier","postcode": "35450","lat": "48.200526","lon": "-1.360717","city": "Dourdain","departement": "Ille-et-Vilaine", "region": "Bretagne", "importance": 0.0104},
{"id": "35103B089S","type": "place","name": "Le Champ de Janvier","postcode": "35640","lat": "47.840692","lon": "-1.27496","city": "EancÃ©","departement": "Ille-et-Vilaine", "region": "Bretagne", "importance": 0.0052},
{"id": "35138B124C","type": "place","name": "La Croix Janvier","postcode": "35133","lat": "48.394838","lon": "-1.121511","city": "Laignelet","departement": "Ille-et-Vilaine", "region": "Bretagne", "importance": 0.0311},
{"id": "35142B384T","type": "place","name": "La Croix Janvier","postcode": "35133","lat": "48.423196","lon": "-1.091947","city": "LandÃ©an","departement": "Ille-et-Vilaine", "region": "Bretagne", "importance": 0.0124},
{"id": "35184C588U","type": "place","name": "La Ville Janvier","postcode": "35360","lat": "48.200822","lon": "-2.063169","city": "Montauban-de-Bretagne","departement": "Ille-et-Vilaine", "region": "Bretagne", "importance": 0.05},
{"id": "35191B340G","type": "place","name": "Le Clos Janvier","postcode": "35460","lat": "48.454153","lon": "-1.315692","city": "Montours","departement": "Ille-et-Vilaine", "region": "Bretagne", "importance": 0.0311},
{"id": "35219B510V","type": "place","name": "Les Hauts Janvier","postcode": "35550","lat": "47.819938","lon": "-1.957208","city": "Pipriac","departement": "Ille-et-Vilaine", "region": "Bretagne", "importance": 0.05},
{"id": "35234B573Y","type": "place","name": "Le Courtil Janvier","postcode": "35290","lat": "48.252189","lon": "-2.117934","city": "QuÃ©dillac","departement": "Ille-et-Vilaine", "region": "Bretagne", "importance": 0.0111},
{"id": "35248B343M","type": "place","name": "Le Janvier","postcode": "35610","lat": "48.550117","lon": "-1.620842","city": "Sains","departement": "Ille-et-Vilaine", "region": "Bretagne", "importance": 0.0062},
{"id": "35296B587U","type": "place","name": "Le Janvier de la Croix","postcode": "35250","lat": "48.2871","lon": "-1.650318","city": "Saint-MÃ©dard-sur-Ille","departement": "Ille-et-Vilaine", "region": "Bretagne", "importance": 0.0124},
{"id": "35296B588V","type": "place","name": "Le Janvier de la Lande","postcode": "35250","lat": "48.285738","lon": "-1.650167","city": "Saint-MÃ©dard-sur-Ille","departement": "Ille-et-Vilaine", "region": "Bretagne", "importance": 0.0124},
{"id": "35323B251L","type": "place","name": "Les Goutus Janvier","postcode": "35460","lat": "48.42831","lon": "-1.333485","city": "La Selle-en-CoglÃ¨s","departement": "Ille-et-Vilaine", "region": "Bretagne", "importance": 0.0214},
{"id": "35359B287U","type": "place","name": "Cours Janviers","postcode": "35130","lat": "47.965956","lon": "-1.301809","city": "Visseiche","departement": "Ille-et-Vilaine", "region": "Bretagne", "importance": 0.0266},
{"id": "36005B111N","type": "place","name": "Chez Janvier","postcode": "36120","lat": "46.757482","lon": "1.857488","city": "Ardentes","departement": "Indre", "region": "Centre", "importance": 0.05},
{"id": "36094C141W","type": "place","name": "Taillis de Janvier","postcode": "36370","lat": "46.491117","lon": "1.26114","city": "Lignac","departement": "Indre", "region": "Centre", "importance": 0.0071},
{"id": "37111B153V","type": "place","name": "Sur les Janviers","postcode": "37460","lat": "47.176412","lon": "1.102013","city": "GenillÃ©","departement": "Indre-et-Loire", "region": "Centre", "importance": 0.0141},
{"id": "381170090R","type": "street","name": "Rue du 29 Janvier 1944","postcode": "38470","lat": "45.171328","lon": "5.412120","city": "Cognin-les-Gorges","departement": "IsÃ¨re", "region": "RhÃ´ne-Alpes","importance": 0.0186 ,"housenumbers":{"103": {"lat": 45.171628,"lon": 5.412419},"125": {"lat": 45.171709,"lon": 5.412521},"147": {"lat": 45.171780,"lon": 5.412611},"155": {"lat": 45.171996,"lon": 5.412875},"17": {"lat": 45.170910,"lon": 5.411548},"32": {"lat": 45.171018,"lon": 5.411815},"50": {"lat": 45.171089,"lon": 5.411903},"85": {"lat": 45.171345,"lon": 5.412081}}},
{"id": "384210900Z","type": "street","name": "Rue du 4 Janvier 1944","postcode": "38400","lat": "45.168896","lon": "5.776990","city": "Saint-Martin-d'HÃ¨res","departement": "IsÃ¨re", "region": "RhÃ´ne-Alpes","importance": 0.2918 ,"housenumbers":{"2": {"lat": 45.168844,"lon": 5.772569},"21": {"lat": 45.169061,"lon": 5.777632},"23": {"lat": 45.169264,"lon": 5.777916},"25": {"lat": 45.170001,"lon": 5.778204},"28": {"lat": 45.169801,"lon": 5.779245},"30": {"lat": 45.170072,"lon": 5.779531},"31": {"lat": 45.170558,"lon": 5.779810},"32": {"lat": 45.170313,"lon": 5.779692},"33": {"lat": 45.170867,"lon": 5.779866},"34": {"lat": 45.170581,"lon": 5.780338},"35": {"lat": 45.171091,"lon": 5.779609},"37": {"lat": 45.171191,"lon": 5.780419},"39": {"lat": 45.171374,"lon": 5.780822},"92": {"lat": 45.169005,"lon": 5.772889}}},
{"id": "38312B057N","type": "place","name": "Mollard Janvier","postcode": "38340","lat": "45.3101","lon": "5.657662","city": "Pommiers-la-Placette","departement": "IsÃ¨re", "region": "RhÃ´ne-Alpes", "importance": 0.0071},
{"id": "391981710W","type": "street","name": "Rue du 21 Janvier","postcode": "39100","lat": "47.095660","lon": "5.494571","city": "Dole","departement": "Jura", "region": "Franche-ComtÃ©","importance": 0.3761 ,"housenumbers":{"1": {"lat": 47.095091,"lon": 5.495643},"10": {"lat": 47.095328,"lon": 5.495060},"11": {"lat": 47.095917,"lon": 5.494070},"12": {"lat": 47.095419,"lon": 5.494928},"13": {"lat": 47.096016,"lon": 5.493915},"14": {"lat": 47.095546,"lon": 5.494737},"17": {"lat": 47.096124,"lon": 5.493695},"18": {"lat": 47.095631,"lon": 5.494561},"24": {"lat": 47.095747,"lon": 5.494233},"26": {"lat": 47.095773,"lon": 5.494174},"28": {"lat": 47.095845,"lon": 5.494015},"30": {"lat": 47.095883,"lon": 5.493949},"32": {"lat": 47.095956,"lon": 5.493811},"34": {"lat": 47.096022,"lon": 5.493684},"36": {"lat": 47.096104,"lon": 5.493512},"38": {"lat": 47.096211,"lon": 5.493280},"4": {"lat": 47.095091,"lon": 5.495408},"6": {"lat": 47.095194,"lon": 5.495257},"7": {"lat": 47.095746,"lon": 5.494524},"9": {"lat": 47.095804,"lon": 5.494350}}},
{"id": "394780020S","type": "street","name": "Rue Antide-Janvier","postcode": "39200","lat": "46.386937","lon": "5.863336","city": "Saint-Claude","departement": "Jura", "region": "Franche-ComtÃ©","importance": 0.3501 ,"housenumbers":{"1": {"lat": 46.387269,"lon": 5.862857},"10": {"lat": 46.386671,"lon": 5.863493},"11": {"lat": 46.386634,"lon": 5.863613},"12": {"lat": 46.386615,"lon": 5.863526},"14": {"lat": 46.386577,"lon": 5.863563},"16": {"lat": 46.386542,"lon": 5.863588},"17": {"lat": 46.386502,"lon": 5.864105},"18": {"lat": 46.386490,"lon": 5.863623},"2": {"lat": 46.387056,"lon": 5.863097},"2bis": {"lat": 46.386915,"lon": 5.863328},"3": {"lat": 46.387189,"lon": 5.863018},"4": {"lat": 46.386827,"lon": 5.863384},"5": {"lat": 46.387163,"lon": 5.863059},"5bis": {"lat": 46.387089,"lon": 5.863180},"6": {"lat": 46.386748,"lon": 5.863440}}},
{"id": "410184048N","type": "street","name": "Impasse du 28 Janvier","postcode": "41000","lat": "47.579474","lon": "1.343127","city": "Blois","departement": "Loir-et-Cher", "region": "Centre","importance": 0.3428 ,"housenumbers":{"2": {"lat": 47.579498,"lon": 1.343109},"4": {"lat": 47.579402,"lon": 1.343310},"6": {"lat": 47.579315,"lon": 1.343491},"8": {"lat": 47.579277,"lon": 1.343533}}},
{"id": "410184050R","type": "street","name": "Rue du 28 Janvier","postcode": "41000","lat": "47.579781","lon": "1.342950","city": "Blois","departement": "Loir-et-Cher", "region": "Centre","importance": 0.4682 ,"housenumbers":{"10": {"lat": 47.579971,"lon": 1.343751},"11": {"lat": 47.580052,"lon": 1.343629},"13": {"lat": 47.580003,"lon": 1.343461},"13bis": {"lat": 47.579893,"lon": 1.343131},"14": {"lat": 47.579874,"lon": 1.343449},"18": {"lat": 47.579787,"lon": 1.343172},"19": {"lat": 47.579823,"lon": 1.342911},"20": {"lat": 47.579496,"lon": 1.343527},"21": {"lat": 47.579776,"lon": 1.342765},"22": {"lat": 47.579689,"lon": 1.342854},"23": {"lat": 47.579692,"lon": 1.342499},"24": {"lat": 47.579602,"lon": 1.342574},"25": {"lat": 47.579635,"lon": 1.342321},"26": {"lat": 47.579550,"lon": 1.342419},"27": {"lat": 47.579584,"lon": 1.342023},"28": {"lat": 47.579442,"lon": 1.342368},"29": {"lat": 47.579579,"lon": 1.341947},"3": {"lat": 47.580272,"lon": 1.344335},"30": {"lat": 47.579435,"lon": 1.341853},"31": {"lat": 47.579589,"lon": 1.341585},"32": {"lat": 47.579230,"lon": 1.341630},"33": {"lat": 47.579602,"lon": 1.341361},"34": {"lat": 47.579465,"lon": 1.341579},"4": {"lat": 47.580153,"lon": 1.344336},"6": {"lat": 47.580070,"lon": 1.344072},"7": {"lat": 47.580182,"lon": 1.344041},"8": {"lat": 47.579838,"lon": 1.343921},"9": {"lat": 47.580106,"lon": 1.343800}}},
{"id": "41045B080P","type": "place","name": "Les Janvieres","postcode": "41150","lat": "47.478985","lon": "1.210076","city": "Chaumont-sur-Loire","departement": "Loir-et-Cher", "region": "Centre", "importance": 0.0311},
{"id": "41126B328G","type": "place","name": "La Taille Janvier","postcode": "41110","lat": "47.277688","lon": "1.358182","city": "Mareuil-sur-Cher","departement": "Loir-et-Cher", "region": "Centre", "importance": 0.0111},
{"id": "41147B033V","type": "place","name": "Les Janviers","postcode": "41120","lat": "47.515421","lon": "1.308757","city": "Les Montils","departement": "Loir-et-Cher", "region": "Centre", "importance": 0.0146},
{"id": "440470790L","type": "street","name": "Rue du Docteur Janvier","postcode": "44220","lat": "47.210389","lon": "-1.724319","city": "CouÃ«ron","departement": "Loire-Atlantique", "region": "Pays de la Loire","importance": 0.1103 ,"housenumbers":{"1": {"lat": 47.210844,"lon": -1.726522},"10": {"lat": 47.210750,"lon": -1.726035},"10B": {"lat": 47.210742,"lon": -1.725912},"10bis": {"lat": 47.210742,"lon": -1.725905},"12": {"lat": 47.210702,"lon": -1.725740},"14": {"lat": 47.210650,"lon": -1.725631},"15": {"lat": 47.210510,"lon": -1.725113},"16": {"lat": 47.210572,"lon": -1.725475},"18": {"lat": 47.210471,"lon": -1.725268},"19": {"lat": 47.210563,"lon": -1.724825},"20": {"lat": 47.210400,"lon": -1.725032},"21": {"lat": 47.210503,"lon": -1.724575},"22": {"lat": 47.210384,"lon": -1.724957},"24": {"lat": 47.210365,"lon": -1.724868},"26": {"lat": 47.210351,"lon": -1.724801},"28": {"lat": 47.210339,"lon": -1.724741},"3": {"lat": 47.210808,"lon": -1.726230},"30": {"lat": 47.210324,"lon": -1.724667},"32": {"lat": 47.210307,"lon": -1.724589},"34": {"lat": 47.210293,"lon": -1.724522},"36": {"lat": 47.210281,"lon": -1.724466},"38": {"lat": 47.210268,"lon": -1.724402},"4": {"lat": 47.210824,"lon": -1.726788},"40": {"lat": 47.210260,"lon": -1.724364},"42": {"lat": 47.210242,"lon": -1.724281},"44": {"lat": 47.210234,"lon": -1.724235},"46": {"lat": 47.209905,"lon": -1.724860},"5": {"lat": 47.210795,"lon": -1.726037},"6": {"lat": 47.210816,"lon": -1.726668},"8": {"lat": 47.210783,"lon": -1.726409},"9": {"lat": 47.210670,"lon": -1.725561}}},
{"id": "44054B134Z","type": "place","name": "Le Bois Janvier","postcode": "44110","lat": "47.699647","lon": "-1.319904","city": "Erbray","departement": "Loire-Atlantique", "region": "Pays de la Loire", "importance": 0.0195},
{"id": "44075B956B","type": "place","name": "Les Pres Janvier","postcode": "44520","lat": "47.614002","lon": "-1.456621","city": "IssÃ©","departement": "Loire-Atlantique", "region": "Pays de la Loire", "importance": 0.0151},
{"id": "44124B318V","type": "place","name": "Le Doux Janvier","postcode": "44540","lat": "47.608022","lon": "-1.13921","city": "Le Pin","departement": "Loire-Atlantique", "region": "Pays de la Loire", "importance": 0.0080},
{"id": "44129B227Z","type": "place","name": "Les Janviers","postcode": "44160","lat": "47.416722","lon": "-2.083963","city": "PontchÃ¢teau","departement": "Loire-Atlantique", "region": "Pays de la Loire", "importance": 0.05},
{"id": "44151B293A","type": "place","name": "Le Parc Janvier","postcode": "44117","lat": "47.324522","lon": "-2.319945","city": "Saint-AndrÃ©-des-Eaux","departement": "Loire-Atlantique", "region": "Pays de la Loire", "importance": 0.0256},
{"id": "44153B125J","type": "place","name": "Le Bois Janvier","postcode": "44110","lat": "47.734719","lon": "-1.479011","city": "Saint-Aubin-des-ChÃ¢teaux","departement": "Loire-Atlantique", "region": "Pays de la Loire", "importance": 0.0141},
{"id": "44172B152F","type": "place","name": "La Janvierie","postcode": "44980","lat": "47.238552","lon": "-1.480004","city": "Sainte-Luce-sur-Loire","departement": "Loire-Atlantique", "region": "Pays de la Loire", "importance": 0.05},
{"id": "44172B306Y","type": "place","name": "Le PrÃ© Janvier","postcode": "44980","lat": "47.257002","lon": "-1.466125","city": "Sainte-Luce-sur-Loire","departement": "Loire-Atlantique", "region": "Pays de la Loire", "importance": 0.0340},
{"id": "44186B809J","type": "place","name": "Marais Janvier","postcode": "44680","lat": "47.099398","lon": "-1.782452","city": "Sainte-Pazanne","departement": "Loire-Atlantique", "region": "Pays de la Loire", "importance": 0.0256},
{"id": "44186C673Y","type": "place","name": "Le Taillis Janvier","postcode": "44680","lat": "47.098755","lon": "-1.78476","city": "Sainte-Pazanne","departement": "Loire-Atlantique", "region": "Pays de la Loire", "importance": 0.0256},
{"id": "44213B089J","type": "place","name": "Le Bois Janvier","postcode": "44370","lat": "47.426957","lon": "-1.021782","city": "Varades","departement": "Loire-Atlantique", "region": "Pays de la Loire", "importance": 0.05},
{"id": "450870515K","type": "street","name": "Rue du 27 Janvier 1945","postcode": "45360","lat": "47.591687","lon": "2.742436","city": "ChÃ¢tillon-sur-Loire","departement": "Loiret", "region": "Centre","importance": 0.1754 ,"housenumbers":{"18": {"lat": 47.592155,"lon": 2.742245},"20": {"lat": 47.592079,"lon": 2.741887}}},
{"id": "45018B085Z","type": "place","name": "Les Janvieres","postcode": "45340","lat": "48.09229","lon": "2.483501","city": "Auxy","departement": "Loiret", "region": "Centre", "importance": 0.0104},
{"id": "45036B012S","type": "place","name": "Cours Janvier","postcode": "45290","lat": "47.809953","lon": "2.727233","city": "Boismorand","departement": "Loiret", "region": "Centre", "importance": 0.0089},
{"id": "45114B038F","type": "place","name": "Les Janviers","postcode": "45490","lat": "48.107213","lon": "2.625633","city": "Courtempierre","departement": "Loiret", "region": "Centre", "importance": 0.0028},
{"id": "45114B076X","type": "place","name": "Terres des Janviers","postcode": "45490","lat": "48.106639","lon": "2.626798","city": "Courtempierre","departement": "Loiret", "region": "Centre", "importance": 0.0028},
{"id": "45229B099X","type": "place","name": "Piece de Cours Janvier","postcode": "45290","lat": "47.815121","lon": "2.72785","city": "Nogent-sur-Vernisson","departement": "Loiret", "region": "Centre", "importance": 0.0185},
{"id": "45306B054N","type": "place","name": "Les Glands de Janvier","postcode": "45210","lat": "47.99152","lon": "2.912401","city": "La Selle-en-Hermoy","departement": "Loiret", "region": "Centre", "importance": 0.0089},
{"id": "45328B008T","type": "place","name": "Le Bois Janvier","postcode": "45490","lat": "48.094607","lon": "2.661455","city": "Treilles-en-GÃ¢tinais","departement": "Loiret", "region": "Centre", "importance": 0.0121},
{"id": "472910065C","type": "street","name": "Route du 31 Janvier 1852","postcode": "47150","lat": "44.469424","lon": "0.730426","city": "La Sauvetat-sur-LÃ¨de","departement": "Lot-et-Garonne", "region": "Aquitaine","importance": 0.0211 ,"housenumbers":{"1": {"lat": 44.471734,"lon": 0.731065},"10": {"lat": 44.469753,"lon": 0.730596},"11": {"lat": 44.470160,"lon": 0.730832},"12": {"lat": 44.469471,"lon": 0.730410},"13": {"lat": 44.470045,"lon": 0.730780},"14": {"lat": 44.469400,"lon": 0.730327},"15": {"lat": 44.469826,"lon": 0.730757},"16": {"lat": 44.469269,"lon": 0.730193},"17": {"lat": 44.469608,"lon": 0.730673},"18": {"lat": 44.469184,"lon": 0.730082},"19": {"lat": 44.469343,"lon": 0.730464},"2": {"lat": 44.471666,"lon": 0.730961},"21": {"lat": 44.469286,"lon": 0.730354},"22": {"lat": 44.468922,"lon": 0.729767},"23": {"lat": 44.469161,"lon": 0.730295},"24": {"lat": 44.468817,"lon": 0.729650},"25": {"lat": 44.469102,"lon": 0.730206},"26": {"lat": 44.468507,"lon": 0.729262},"28": {"lat": 44.468149,"lon": 0.728819},"29": {"lat": 44.469000,"lon": 0.730086},"3": {"lat": 44.470982,"lon": 0.730952},"30": {"lat": 44.468036,"lon": 0.728676},"31": {"lat": 44.468674,"lon": 0.729609},"32": {"lat": 44.467289,"lon": 0.727723},"33": {"lat": 44.467845,"lon": 0.728634},"34": {"lat": 44.466689,"lon": 0.726959},"35": {"lat": 44.467621,"lon": 0.728344},"37": {"lat": 44.467454,"lon": 0.728129},"39": {"lat": 44.467204,"lon": 0.727808},"4": {"lat": 44.470626,"lon": 0.730772},"41": {"lat": 44.467047,"lon": 0.727604},"43": {"lat": 44.466871,"lon": 0.727380},"45": {"lat": 44.466715,"lon": 0.727182},"47": {"lat": 44.466522,"lon": 0.726930},"49": {"lat": 44.466339,"lon": 0.726697},"5": {"lat": 44.470681,"lon": 0.730920},"6": {"lat": 44.470201,"lon": 0.730700},"7": {"lat": 44.470528,"lon": 0.730883},"8": {"lat": 44.469887,"lon": 0.730630},"9": {"lat": 44.470412,"lon": 0.730888},"9bis": {"lat": 44.470297,"lon": 0.730863}}},
{"id": "491530048C","type": "street","name": "AllÃ©e du 1Er Janvier 1974","postcode": "49670","lat": "47.216045","lon": "-0.601207","city": "Valanjou","departement": "Maine-et-Loire", "region": "Pays de la Loire","importance": 0.0077 ,"housenumbers":{"2": {"lat": 47.216045,"lon": -0.601207}}},
{"id": "492430120P","type": "street","name": "Place du 22 Janvier 1794","postcode": "49510","lat": "47.227493","lon": "-0.896613","city": "La PoiteviniÃ¨re","departement": "Maine-et-Loire", "region": "Pays de la Loire","importance": 0.0227 ,"housenumbers":{"2": {"lat": 47.227486,"lon": -0.896735},"4": {"lat": 47.227457,"lon": -0.896624},"6": {"lat": 47.227535,"lon": -0.896480}}},
{"id": "493230009W","type": "street","name": "Rue AdÃ¨le Janvier","postcode": "49480","lat": "47.524569","lon": "-0.468858","city": "Saint-Sylvain-d'Anjou","departement": "Maine-et-Loire", "region": "Pays de la Loire","importance": 0.0619 ,"housenumbers":{"11": {"lat": 47.524046,"lon": -0.468363},"13": {"lat": 47.524151,"lon": -0.468493},"14": {"lat": 47.524783,"lon": -0.469034},"15": {"lat": 47.524345,"lon": -0.468698},"16": {"lat": 47.524825,"lon": -0.469071},"17": {"lat": 47.524514,"lon": -0.468876},"19": {"lat": 47.524662,"lon": -0.469008},"21": {"lat": 47.524780,"lon": -0.469125},"23": {"lat": 47.524949,"lon": -0.469263},"25": {"lat": 47.525025,"lon": -0.469518}}},
{"id": "49026B084A","type": "place","name": "Bois Janvier","postcode": "49370","lat": "47.496479","lon": "-0.824252","city": "BÃ©con-les-Granits","departement": "Maine-et-Loire", "region": "Pays de la Loire", "importance": 0.0188},
{"id": "49026B652T","type": "place","name": "Grands Bois Janvier","postcode": "49370","lat": "47.497894","lon": "-0.824069","city": "BÃ©con-les-Granits","departement": "Maine-et-Loire", "region": "Pays de la Loire", "importance": 0.0188},
{"id": "49026C020T","type": "place","name": "Petits Bois Janvier","postcode": "49370","lat": "47.496889","lon": "-0.821755","city": "BÃ©con-les-Granits","departement": "Maine-et-Loire", "region": "Pays de la Loire", "importance": 0.0188},
{"id": "49030B221G","type": "place","name": "Cour Janvier","postcode": "49160","lat": "47.365559","lon": "-0.039551","city": "Blou","departement": "Maine-et-Loire", "region": "Pays de la Loire", "importance": 0.0311},
{"id": "49101B655V","type": "place","name": "Le Champ Janvier","postcode": "49150","lat": "47.589343","lon": "-0.047661","city": "Clefs-Val-d'Anjou","departement": "Maine-et-Loire", "region": "Pays de la Loire", "importance": 0.0104},
{"id": "49105B937J","type": "place","name": "Le PrÃ© de Janvier","postcode": "49330","lat": "47.707617","lon": "-0.507889","city": "ContignÃ©","departement": "Maine-et-Loire", "region": "Pays de la Loire", "importance": 0.0089},
{"id": "50417B318B","type": "place","name": "Le Clos Janvier","postcode": "50630","lat": "49.584974","lon": "-1.31835","city": "Quettehou","departement": "Manche", "region": "Basse-Normandie", "importance": 0.05},
{"id": "530030188U","type": "street","name": "Rue de Cour Janvier","postcode": "53300","lat": "48.398972","lon": "-0.635554","city": "AmbriÃ¨res-les-VallÃ©es","departement": "Mayenne", "region": "Pays de la Loire","importance": 0.2292 ,"housenumbers":{"1": {"lat": 48.398266,"lon": -0.634021},"10": {"lat": 48.398798,"lon": -0.634760},"11": {"lat": 48.398847,"lon": -0.635059},"12": {"lat": 48.398914,"lon": -0.634968},"13": {"lat": 48.398896,"lon": -0.635821},"15": {"lat": 48.398865,"lon": -0.636061},"2": {"lat": 48.398352,"lon": -0.633967},"3": {"lat": 48.398389,"lon": -0.634239},"4": {"lat": 48.398458,"lon": -0.634152},"5": {"lat": 48.398501,"lon": -0.634438},"6": {"lat": 48.398563,"lon": -0.634342},"7": {"lat": 48.398615,"lon": -0.634645},"8": {"lat": 48.398681,"lon": -0.634552},"9": {"lat": 48.398728,"lon": -0.634847}}},
{"id": "530160040B","type": "street","name": "Avenue Auguste Janvier","postcode": "53160","lat": "48.251239","lon": "-0.365749","city": "Bais","departement": "Mayenne", "region": "Pays de la Loire","importance": 0.2136 ,"housenumbers":{"1": {"lat": 48.250987,"lon": -0.366162},"2": {"lat": 48.251500,"lon": -0.365397},"3": {"lat": 48.250660,"lon": -0.366547},"6094": {"lat": 48.251483,"lon": -0.367179},"6095": {"lat": 48.251483,"lon": -0.367166},"7": {"lat": 48.251827,"lon": -0.365172}}},
{"id": "530160227E","type": "street","name": "Rue du Docteur Paul Janvier","postcode": "53160","lat": "48.252900","lon": "-0.364643","city": "Bais","departement": "Mayenne", "region": "Pays de la Loire","importance": 0.1859 ,"housenumbers":{"1": {"lat": 48.253187,"lon": -0.364095},"2": {"lat": 48.253173,"lon": -0.365234}}},
{"id": "531270060R","type": "street","name": "Rue du Bois Janvier","postcode": "53110","lat": "48.440424","lon": "-0.498901","city": "Lassay-les-ChÃ¢teaux","departement": "Mayenne", "region": "Pays de la Loire","importance": 0.2278 ,"housenumbers":{"1": {"lat": 48.439804,"lon": -0.499459},"10": {"lat": 48.440363,"lon": -0.499107},"12": {"lat": 48.440430,"lon": -0.499095},"14": {"lat": 48.440508,"lon": -0.499032},"15": {"lat": 48.440573,"lon": -0.499046},"16": {"lat": 48.440411,"lon": -0.498875},"17": {"lat": 48.440661,"lon": -0.498974},"19": {"lat": 48.440731,"lon": -0.498901},"2": {"lat": 48.439901,"lon": -0.499326},"20": {"lat": 48.440492,"lon": -0.498755},"21": {"lat": 48.440806,"lon": -0.498830},"22": {"lat": 48.440673,"lon": -0.498888},"23": {"lat": 48.440862,"lon": -0.498791},"24": {"lat": 48.440793,"lon": -0.498659},"24bis": {"lat": 48.440764,"lon": -0.498686},"3": {"lat": 48.439878,"lon": -0.499419},"4": {"lat": 48.439983,"lon": -0.499292},"5": {"lat": 48.439954,"lon": -0.499378},"7": {"lat": 48.440131,"lon": -0.499292},"8": {"lat": 48.440070,"lon": -0.499251}}},
{"id": "53003B419B","type": "place","name": "Le Grand Cour Janvier","postcode": "53300","lat": "48.398527","lon": "-0.637801","city": "AmbriÃ¨res-les-VallÃ©es","departement": "Mayenne", "region": "Pays de la Loire", "importance": 0.05},
{"id": "53003B808Z","type": "place","name": "Le Petit Cour Janvier","postcode": "53300","lat": "48.396369","lon": "-0.634927","city": "AmbriÃ¨res-les-VallÃ©es","departement": "Mayenne", "region": "Pays de la Loire", "importance": 0.05},
{"id": "53005B516Y","type": "place","name": "Le Courtil Janvier","postcode": "53240","lat": "48.180817","lon": "-0.822183","city": "AndouillÃ©","departement": "Mayenne", "region": "Pays de la Loire", "importance": 0.0173},
{"id": "53053B110Y","type": "place","name": "Le Champ A la Janviere","postcode": "53160","lat": "48.276953","lon": "-0.356417","city": "ChampgenÃ©teux","departement": "Mayenne", "region": "Pays de la Loire", "importance": 0.0071},
{"id": "53127B075N","type": "place","name": "Le Bois Janvier","postcode": "53110","lat": "48.440536","lon": "-0.498757","city": "Lassay-les-ChÃ¢teaux","departement": "Mayenne", "region": "Pays de la Loire", "importance": 0.05},
{"id": "53186B420G","type": "place","name": "Le Grand Chene Janvier","postcode": "53360","lat": "47.924975","lon": "-0.813682","city": "Quelaines-Saint-Gault","departement": "Mayenne", "region": "Pays de la Loire", "importance": 0.0156},
{"id": "53186B773R","type": "place","name": "Le Petit Chene Janvier","postcode": "53360","lat": "47.923538","lon": "-0.81494","city": "Quelaines-Saint-Gault","departement": "Mayenne", "region": "Pays de la Loire", "importance": 0.0156},
{"id": "53190B180D","type": "place","name": "Le Champ Janvier","postcode": "53640","lat": "48.39629","lon": "-0.405093","city": "Le Ribay","departement": "Mayenne", "region": "Pays de la Loire", "importance": 0.0062},
{"id": "53216B040N","type": "place","name": "Le Bois Janvier","postcode": "53300","lat": "48.357701","lon": "-0.565301","city": "Saint-Fraimbault-de-PriÃ¨res","departement": "Mayenne", "region": "Pays de la Loire", "importance": 0.0311},
{"id": "53216B183U","type": "place","name": "Le Champ Janvier","postcode": "53300","lat": "48.345394","lon": "-0.574054","city": "Saint-Fraimbault-de-PriÃ¨res","departement": "Mayenne", "region": "Pays de la Loire", "importance": 0.0104},
{"id": "53216B526S","type": "place","name": "Le Petit Champ Janvier","postcode": "53300","lat": "48.344649","lon": "-0.573053","city": "Saint-Fraimbault-de-PriÃ¨res","departement": "Mayenne", "region": "Pays de la Loire", "importance": 0.0311},
{"id": "53218B432F","type": "place","name": "Le Champ Janvier","postcode": "53600","lat": "48.230516","lon": "-0.353224","city": "Sainte-Gemmes-le-Robert","departement": "Mayenne", "region": "Pays de la Loire", "importance": 0.0096},
{"id": "53234B502M","type": "place","name": "Le PrÃ© Janvier","postcode": "53300","lat": "48.382083","lon": "-0.575752","city": "Saint-Loup-du-Gast","departement": "Mayenne", "region": "Pays de la Loire", "importance": 0.0052},
{"id": "560010065J","type": "street","name": "Rue du Champ Janvier","postcode": "56350","lat": "47.634694","lon": "-2.157485","city": "Allaire","departement": "Morbihan", "region": "Bretagne","importance": 0.2074 ,"housenumbers":{"6713": {"lat": 47.634079,"lon": -2.156220},"6728": {"lat": 47.634863,"lon": -2.157901}}},
{"id": "560800129K","type": "street","name": "Rue du Vingt Janvier 1944","postcode": "56490","lat": "48.043565","lon": "-2.405806","city": "Guilliers","departement": "Morbihan", "region": "Bretagne","importance": 0.0318 ,"housenumbers":{"1": {"lat": 48.043462,"lon": -2.405821},"10": {"lat": 48.043218,"lon": -2.406264},"2": {"lat": 48.044357,"lon": -2.405291},"2A": {"lat": 48.044340,"lon": -2.405269},"3": {"lat": 48.043084,"lon": -2.406264},"6": {"lat": 48.043687,"lon": -2.405741},"8": {"lat": 48.043810,"lon": -2.406681}}},
{"id": "561220144U","type": "street","name": "Rue du 20 Janvier 1944","postcode": "56800","lat": "47.994254","lon": "-2.383074","city": "Loyat","departement": "Morbihan", "region": "Bretagne","importance": 0.0392 ,"housenumbers":{"1": {"lat": 47.992232,"lon": -2.382271},"14": {"lat": 47.995393,"lon": -2.383194},"16": {"lat": 47.995893,"lon": -2.383237},"18": {"lat": 47.996224,"lon": -2.383260},"2": {"lat": 47.991851,"lon": -2.381839},"20": {"lat": 47.996634,"lon": -2.383300},"22": {"lat": 47.997109,"lon": -2.383147},"2A": {"lat": 47.991918,"lon": -2.381854},"3": {"lat": 47.992478,"lon": -2.382485},"4": {"lat": 47.992171,"lon": -2.382067},"44": {"lat": 47.992653,"lon": -2.382466},"5": {"lat": 47.992966,"lon": -2.382916},"5bis": {"lat": 47.993731,"lon": -2.383151},"6": {"lat": 47.992426,"lon": -2.382271},"7": {"lat": 47.994243,"lon": -2.383174},"8": {"lat": 47.992578,"lon": -2.382410}}},
{"id": "561841484F","type": "street","name": "Ruelle Janvier","postcode": "56230","lat": "47.663092","lon": "-2.455831","city": "Questembert","departement": "Morbihan", "region": "Bretagne","importance": 0.0414 ,"housenumbers":{"7519": {"lat": 47.663159,"lon": -2.455893}}},
{"id": "56001C772W","type": "place","name": "Lande du Champ Janvier","postcode": "56350","lat": "47.635248","lon": "-2.156985","city": "Allaire","departement": "Morbihan", "region": "Bretagne", "importance": 0.05},
{"id": "56019B012E","type": "place","name": "La GrÃ©e Janvier","postcode": "56420","lat": "47.878205","lon": "-2.63081","city": "Billio","departement": "Morbihan", "region": "Bretagne", "importance": 0.0155},
{"id": "56019B066N","type": "place","name": "Terres de la Gree Janvier","postcode": "56420","lat": "47.878123","lon": "-2.6323","city": "Billio","departement": "Morbihan", "region": "Bretagne", "importance": 0.0052},
{"id": "56038B879P","type": "place","name": "La Ville Janvier","postcode": "56200","lat": "47.799959","lon": "-2.109635","city": "La Chapelle-Gaceline","departement": "Morbihan", "region": "Bretagne", "importance": 0.0241},
{"id": "56044B406Z","type": "place","name": "Moulin de la Ville Janvier","postcode": "56200","lat": "47.758406","lon": "-2.107112","city": "Cournon","departement": "Morbihan", "region": "Bretagne", "importance": 0.0080},
{"id": "56044B688F","type": "place","name": "La Ville Janvier","postcode": "56200","lat": "47.752305","lon": "-2.122482","city": "Cournon","departement": "Morbihan", "region": "Bretagne", "importance": 0.0241},
{"id": "56044B689G","type": "place","name": "La Ville Janvier","postcode": "56200","lat": "47.752305","lon": "-2.122482","city": "Cournon","departement": "Morbihan", "region": "Bretagne", "importance": 0.0080},
{"id": "56059B245J","type": "place","name": "Le Clos Janvier","postcode": "56120","lat": "47.998111","lon": "-2.635197","city": "Les Forges","departement": "Morbihan", "region": "Bretagne", "importance": 0.0052},
{"id": "570060225H","type": "street","name": "Rue du 3 Janvier 1945","postcode": "57412","lat": "49.047814","lon": "7.184975","city": "Achen","departement": "Moselle", "region": "Lorraine","importance": 0.0293 ,"housenumbers":{"1": {"lat": 49.047650,"lon": 7.184792},"11": {"lat": 49.049543,"lon": 7.185845},"12": {"lat": 49.048249,"lon": 7.185245},"14": {"lat": 49.048389,"lon": 7.185359},"18": {"lat": 49.048785,"lon": 7.185589},"2": {"lat": 49.046969,"lon": 7.184424},"20": {"lat": 49.048969,"lon": 7.185685},"22": {"lat": 49.049362,"lon": 7.185817},"2A": {"lat": 49.046504,"lon": 7.183816},"3": {"lat": 49.047743,"lon": 7.184831},"4": {"lat": 49.047215,"lon": 7.184657},"6": {"lat": 49.047361,"lon": 7.184767},"7": {"lat": 49.048844,"lon": 7.185490},"8": {"lat": 49.047544,"lon": 7.184877},"9": {"lat": 49.049266,"lon": 7.185683}}},
{"id": "580860830P","type": "street","name": "Rue Croix Janvier","postcode": "58200","lat": "47.404044","lon": "2.925695","city": "Cosne-Cours-sur-Loire","departement": "NiÃ¨vre", "region": "Bourgogne","importance": 0.3556 ,"housenumbers":{"1": {"lat": 47.404793,"lon": 2.925547},"10": {"lat": 47.403941,"lon": 2.925477},"11": {"lat": 47.403561,"lon": 2.925849},"13": {"lat": 47.403414,"lon": 2.925826},"14": {"lat": 47.403336,"lon": 2.925692},"15": {"lat": 47.403330,"lon": 2.925815},"15bis": {"lat": 47.403304,"lon": 2.925790},"17": {"lat": 47.403250,"lon": 2.925803},"2": {"lat": 47.404438,"lon": 2.925424},"3": {"lat": 47.404478,"lon": 2.925524},"4": {"lat": 47.404244,"lon": 2.925524},"6": {"lat": 47.404157,"lon": 2.925570},"7": {"lat": 47.404132,"lon": 2.925715},"8": {"lat": 47.404040,"lon": 2.925633},"9": {"lat": 47.404013,"lon": 2.925781}}},
{"id": "58114B015N","type": "place","name": "Champ Janvier","postcode": "58170","lat": "46.775839","lon": "3.890708","city": "FlÃ©ty","departement": "NiÃ¨vre", "region": "Bourgogne", "importance": 0.0045},
{"id": "58168B152C","type": "place","name": "Le Grand Janvier","postcode": "58170","lat": "46.851181","lon": "3.983695","city": "Millay","departement": "NiÃ¨vre", "region": "Bourgogne", "importance": 0.0052},
{"id": "58203B094M","type": "place","name": "Poirier Janvier","postcode": "58700","lat": "47.196644","lon": "3.391283","city": "Oulon","departement": "NiÃ¨vre", "region": "Bourgogne", "importance": 0.0015},
{"id": "58290B101S","type": "place","name": "PrÃ© Janvier","postcode": "58250","lat": "46.84137","lon": "3.694352","city": "Thaix","departement": "NiÃ¨vre", "region": "Bourgogne", "importance": 0.0015},
{"id": "595860381B","type": "street","name": "Rue Janvier Courtecuisse","postcode": "59242","lat": "50.536186","lon": "3.167472","city": "Templeuve","departement": "Nord", "region": "Nord-Pas-de-Calais","importance": 0.0655 ,"housenumbers":{"1": {"lat": 50.535953,"lon": 3.167369},"2": {"lat": 50.536086,"lon": 3.167507},"3": {"lat": 50.536163,"lon": 3.167399},"5": {"lat": 50.536385,"lon": 3.167429},"6": {"lat": 50.536316,"lon": 3.167550},"7": {"lat": 50.536574,"lon": 3.167459},"9": {"lat": 50.536696,"lon": 3.167540}}},
{"id": "601592995U","type": "street","name": "Rue du 4 Janvier 1944","postcode": "60200","lat": "49.402655","lon": "2.806360","city": "CompiÃ¨gne","departement": "Oise", "region": "Picardie","importance": 0.3668 ,"housenumbers":{"1": {"lat": 49.403119,"lon": 2.806825},"10": {"lat": 49.402503,"lon": 2.806196},"11": {"lat": 49.402583,"lon": 2.806391},"12": {"lat": 49.402377,"lon": 2.806127},"13": {"lat": 49.402465,"lon": 2.806321},"14": {"lat": 49.402253,"lon": 2.806057},"15": {"lat": 49.402294,"lon": 2.806225},"16": {"lat": 49.402125,"lon": 2.805968},"17": {"lat": 49.402097,"lon": 2.806096},"2": {"lat": 49.403208,"lon": 2.806724},"4": {"lat": 49.403038,"lon": 2.806592},"5": {"lat": 49.402901,"lon": 2.806629},"6": {"lat": 49.402902,"lon": 2.806473},"7": {"lat": 49.402802,"lon": 2.806546},"8": {"lat": 49.402639,"lon": 2.806277},"9": {"lat": 49.402687,"lon": 2.806461}}},
{"id": "60481B009E","type": "place","name": "Le Bois Janvier","postcode": "60129","lat": "49.286031","lon": "2.849784","city": "Orrouy","departement": "Oise", "region": "Picardie", "importance": 0.0071},
{"id": "61287B386E","type": "place","name": "PrÃ© Janvier","postcode": "61100","lat": "48.822531","lon": "-0.585496","city": "Montilly-sur-Noireau","departement": "Orne", "region": "Basse-Normandie", "importance": 0.0080},
{"id": "61295B024B","type": "place","name": "Le Bois Janvier","postcode": "61600","lat": "48.55773","lon": "-0.254096","city": "La Motte-Fouquet","departement": "Orne", "region": "Basse-Normandie", "importance": 0.0085},
{"id": "61394B066S","type": "place","name": "Bois Janvier","postcode": "61130","lat": "48.248989","lon": "0.630861","city": "Saint-Germain-de-la-Coudre","departement": "Orne", "region": "Basse-Normandie", "importance": 0.0089},
{"id": "61469B198J","type": "place","name": "Champ-janvier","postcode": "61330","lat": "48.5005","lon": "-0.542135","city": "Sept-Forges","departement": "Orne", "region": "Basse-Normandie", "importance": 0.0121},
{"id": "61469B380G","type": "place","name": "Le Petit Champ Janvier","postcode": "61330","lat": "48.499914","lon": "-0.536888","city": "Sept-Forges","departement": "Orne", "region": "Basse-Normandie", "importance": 0.0040},
{"id": "633380432V","type": "street","name": "Rue du 26 Janvier 1950","postcode": "63700","lat": "46.155989","lon": "2.826874","city": "Saint-Ã‰loy-les-Mines","departement": "Puy-de-DÃ´me", "region": "Auvergne","importance": 0.0100 },
{"id": "642160085V","type": "street","name": "Chemin de Janvier","postcode": "64420","lat": "43.253492","lon": "-0.167076","city": "Espoey","departement": "PyrÃ©nÃ©es-Atlantiques", "region": "Aquitaine","importance": 0.0295 ,"housenumbers":{"1": {"lat": 43.249613,"lon": -0.164663},"10": {"lat": 43.256745,"lon": -0.168965},"11": {"lat": 43.253457,"lon": -0.166363},"2": {"lat": 43.253936,"lon": -0.166645},"21": {"lat": 43.256006,"lon": -0.168352},"23": {"lat": 43.256251,"lon": -0.168576},"25": {"lat": 43.256753,"lon": -0.169065},"3": {"lat": 43.250568,"lon": -0.165476},"4": {"lat": 43.254599,"lon": -0.167312},"5": {"lat": 43.251376,"lon": -0.166351},"6": {"lat": 43.255957,"lon": -0.168197},"7": {"lat": 43.251908,"lon": -0.166335},"7bis": {"lat": 43.252476,"lon": -0.166092},"8": {"lat": 43.256807,"lon": -0.167559},"9": {"lat": 43.251524,"lon": -0.167444}}},
{"id": "681530280T","type": "street","name": "Rue du 25 Janvier","postcode": "68970","lat": "48.184679","lon": "7.433945","city": "Illhaeusern","departement": "Haut-Rhin", "region": "Alsace","importance": 0.0241 ,"housenumbers":{"1": {"lat": 48.183761,"lon": 7.430163},"10": {"lat": 48.184358,"lon": 7.431788},"12": {"lat": 48.184341,"lon": 7.435098},"12A": {"lat": 48.184492,"lon": 7.434781},"12a": {"lat": 48.184460,"lon": 7.434820},"13": {"lat": 48.184360,"lon": 7.431471},"14": {"lat": 48.184171,"lon": 7.435357},"15": {"lat": 48.184600,"lon": 7.431755},"16": {"lat": 48.183882,"lon": 7.435341},"17": {"lat": 48.184641,"lon": 7.432124},"18": {"lat": 48.183843,"lon": 7.435387},"19": {"lat": 48.185035,"lon": 7.432800},"2": {"lat": 48.183615,"lon": 7.430298},"20": {"lat": 48.183780,"lon": 7.435759},"20A": {"lat": 48.183513,"lon": 7.435891},"20a": {"lat": 48.183294,"lon": 7.435225},"21": {"lat": 48.184733,"lon": 7.432955},"22": {"lat": 48.183186,"lon": 7.435589},"23": {"lat": 48.184740,"lon": 7.433187},"24": {"lat": 48.182872,"lon": 7.435867},"25": {"lat": 48.184796,"lon": 7.433471},"26": {"lat": 48.182238,"lon": 7.436221},"27": {"lat": 48.184746,"lon": 7.433712},"29": {"lat": 48.184758,"lon": 7.434012},"3": {"lat": 48.183875,"lon": 7.430393},"31": {"lat": 48.184727,"lon": 7.434220},"33": {"lat": 48.184683,"lon": 7.434429},"35": {"lat": 48.184615,"lon": 7.434888},"37": {"lat": 48.184501,"lon": 7.435170},"39": {"lat": 48.184344,"lon": 7.435479},"4": {"lat": 48.183797,"lon": 7.430736},"41": {"lat": 48.184152,"lon": 7.435643},"43": {"lat": 48.184143,"lon": 7.435988},"45": {"lat": 48.183732,"lon": 7.435957},"45A": {"lat": 48.183756,"lon": 7.436599},"49": {"lat": 48.182660,"lon": 7.436129},"5": {"lat": 48.183923,"lon": 7.430627},"6": {"lat": 48.183801,"lon": 7.430635},"7": {"lat": 48.184094,"lon": 7.430959},"8": {"lat": 48.184118,"lon": 7.431351},"9": {"lat": 48.184185,"lon": 7.431152}}},
{"id": "681950430Y","type": "street","name": "Avenue du 20 Janvier","postcode": "68460","lat": "47.760708","lon": "7.290061","city": "Lutterbach","departement": "Haut-Rhin", "region": "Alsace","importance": 0.0792 ,"housenumbers":{"10": {"lat": 47.760995,"lon": 7.289933},"12": {"lat": 47.760769,"lon": 7.289957},"13": {"lat": 47.760605,"lon": 7.290130},"14": {"lat": 47.760616,"lon": 7.289971},"15": {"lat": 47.760435,"lon": 7.290146},"17": {"lat": 47.760349,"lon": 7.290154},"17A": {"lat": 47.760438,"lon": 7.290489},"17B": {"lat": 47.760437,"lon": 7.290501},"18": {"lat": 47.760275,"lon": 7.289999},"19": {"lat": 47.760184,"lon": 7.290170},"20": {"lat": 47.760116,"lon": 7.290017},"21": {"lat": 47.760013,"lon": 7.290191},"22": {"lat": 47.759778,"lon": 7.290077},"23": {"lat": 47.759845,"lon": 7.290225},"24": {"lat": 47.759499,"lon": 7.290149},"25": {"lat": 47.759694,"lon": 7.290262},"26": {"lat": 47.759274,"lon": 7.290208},"28": {"lat": 47.759119,"lon": 7.290248},"29": {"lat": 47.759417,"lon": 7.290333},"2A": {"lat": 47.762023,"lon": 7.289537},"31": {"lat": 47.759209,"lon": 7.290388},"4": {"lat": 47.761825,"lon": 7.289606},"6": {"lat": 47.761568,"lon": 7.289733},"7": {"lat": 47.761111,"lon": 7.290071},"8": {"lat": 47.761490,"lon": 7.289695},"9": {"lat": 47.760958,"lon": 7.290100}}},
{"id": "682247660F","type": "street","name": "Rue du 20 Janvier","postcode": "68200","lat": "47.766939","lon": "7.325501","city": "Mulhouse","departement": "Haut-Rhin", "region": "Alsace","importance": 0.4225 ,"housenumbers":{"1": {"lat": 47.767041,"lon": 7.325756},"19": {"lat": 47.767535,"lon": 7.326853},"21": {"lat": 47.767559,"lon": 7.326952},"23": {"lat": 47.767598,"lon": 7.327047},"25": {"lat": 47.767628,"lon": 7.327142},"27": {"lat": 47.767682,"lon": 7.327317},"29": {"lat": 47.767721,"lon": 7.327434},"3": {"lat": 47.767105,"lon": 7.325852},"30": {"lat": 47.767685,"lon": 7.327944},"31": {"lat": 47.767754,"lon": 7.327534},"32": {"lat": 47.767717,"lon": 7.328042},"33": {"lat": 47.767785,"lon": 7.327631},"34": {"lat": 47.767748,"lon": 7.328138},"35": {"lat": 47.767850,"lon": 7.327833},"36": {"lat": 47.767779,"lon": 7.328235},"37": {"lat": 47.767881,"lon": 7.327928},"38": {"lat": 47.767843,"lon": 7.328436},"39": {"lat": 47.767911,"lon": 7.328023},"40": {"lat": 47.767880,"lon": 7.328527},"41": {"lat": 47.767942,"lon": 7.328121},"42": {"lat": 47.767911,"lon": 7.328624},"43": {"lat": 47.768007,"lon": 7.328322},"44": {"lat": 47.767936,"lon": 7.328724},"45": {"lat": 47.768036,"lon": 7.328414},"46": {"lat": 47.768046,"lon": 7.328920},"47": {"lat": 47.768060,"lon": 7.328518},"48": {"lat": 47.768043,"lon": 7.329111},"49": {"lat": 47.768089,"lon": 7.328617},"5": {"lat": 47.767135,"lon": 7.326033},"50": {"lat": 47.768222,"lon": 7.329171},"7": {"lat": 47.767183,"lon": 7.326186},"9": {"lat": 47.767276,"lon": 7.326487}}},
{"id": "682560780N","type": "street","name": "Rue du 20 Janvier","postcode": "68120","lat": "47.763794","lon": "7.316358","city": "Pfastatt","departement": "Haut-Rhin", "region": "Alsace","importance": 0.0798 ,"housenumbers":{"1": {"lat": 47.765584,"lon": 7.314940},"10": {"lat": 47.764908,"lon": 7.315150},"12": {"lat": 47.764788,"lon": 7.315242},"14": {"lat": 47.764643,"lon": 7.315334},"16": {"lat": 47.764071,"lon": 7.315806},"2": {"lat": 47.765500,"lon": 7.314745},"4": {"lat": 47.765429,"lon": 7.314778}}},
{"id": "682670487X","type": "street","name": "Rue du 22 Janvier","postcode": "68950","lat": "47.753263","lon": "7.239470","city": "Reiningue","departement": "Haut-Rhin", "region": "Alsace","importance": 0.0407 ,"housenumbers":{"1": {"lat": 47.752291,"lon": 7.239877},"10": {"lat": 47.753028,"lon": 7.239873},"11": {"lat": 47.752879,"lon": 7.240402},"12": {"lat": 47.753283,"lon": 7.239523},"13": {"lat": 47.752918,"lon": 7.240130},"14": {"lat": 47.753455,"lon": 7.239577},"15": {"lat": 47.752981,"lon": 7.239691},"16": {"lat": 47.753514,"lon": 7.239560},"17": {"lat": 47.753129,"lon": 7.239366},"18": {"lat": 47.753552,"lon": 7.239295},"19": {"lat": 47.753515,"lon": 7.239126},"2": {"lat": 47.752891,"lon": 7.240829},"20": {"lat": 47.753613,"lon": 7.239031},"21": {"lat": 47.753621,"lon": 7.238677},"22": {"lat": 47.753695,"lon": 7.238687},"23": {"lat": 47.753685,"lon": 7.238363},"24": {"lat": 47.753778,"lon": 7.238255},"4": {"lat": 47.752916,"lon": 7.240657},"5": {"lat": 47.752367,"lon": 7.239808},"6": {"lat": 47.752954,"lon": 7.240393},"8": {"lat": 47.752992,"lon": 7.240126}}},
{"id": "683480673X","type": "street","name": "Place du 28 Janvier 1945","postcode": "68800","lat": "47.801164","lon": "7.116842","city": "Vieux-Thann","departement": "Haut-Rhin", "region": "Alsace","importance": 0.0160 },
{"id": "705350010G","type": "street","name": "Rue du 5 Janvier 1871","postcode": "70000","lat": "47.545820","lon": "6.085035","city": "Velleguindry-et-Levrecey","departement": "Haute-SaÃ´ne", "region": "Franche-ComtÃ©","importance": 0.0076 ,"housenumbers":{"1": {"lat": 47.547195,"lon": 6.085842},"11": {"lat": 47.544886,"lon": 6.084871},"2": {"lat": 47.546809,"lon": 6.085363},"3": {"lat": 47.546944,"lon": 6.085618},"4": {"lat": 47.546617,"lon": 6.085202},"5": {"lat": 47.546104,"lon": 6.085427},"6": {"lat": 47.546167,"lon": 6.084917},"7": {"lat": 47.545640,"lon": 6.085111},"9": {"lat": 47.545246,"lon": 6.084901}}},
{"id": "715431510Z","type": "street","name": "Avenue Vingt Trois Janvier","postcode": "71700","lat": "46.559381","lon": "4.914543","city": "Tournus","departement": "SaÃ´ne-et-Loire", "region": "Bourgogne","importance": 0.2271 ,"housenumbers":{"1": {"lat": 46.559989,"lon": 4.914143},"14": {"lat": 46.559262,"lon": 4.914312},"16": {"lat": 46.559181,"lon": 4.914345},"17": {"lat": 46.559700,"lon": 4.914900},"18": {"lat": 46.559034,"lon": 4.914434},"19": {"lat": 46.558452,"lon": 4.914847},"2": {"lat": 46.560001,"lon": 4.913965},"3": {"lat": 46.559597,"lon": 4.914354},"4": {"lat": 46.559944,"lon": 4.913990},"8": {"lat": 46.559830,"lon": 4.914037}}},
{"id": "715840120K","type": "street","name": "Rue du 1er Janvier 1969","postcode": "71260","lat": "46.447860","lon": "4.848342","city": "VirÃ©","departement": "SaÃ´ne-et-Loire", "region": "Bourgogne","importance": 0.0091 ,"housenumbers":{"9": {"lat": 46.447990,"lon": 4.848602}}},
{"id": "715660213P","type": "street","name": "Rue du 27 Janvier 1978","postcode": "71350","lat": "46.891975","lon": "5.024917","city": "Verdun-sur-le-Doubs","departement": "SaÃ´ne-et-Loire", "region": "Bourgogne","importance": 0.0370 },
{"id": "71008B068P","type": "place","name": "Janvier","postcode": "71170","lat": "46.239658","lon": "4.378468","city": "Anglure-sous-Dun","departement": "SaÃ´ne-et-Loire", "region": "Bourgogne", "importance": 0.0085},
{"id": "71100B085H","type": "place","name": "La Janviere","postcode": "71700","lat": "46.510583","lon": "4.8616","city": "Chardonnay","departement": "SaÃ´ne-et-Loire", "region": "Bourgogne", "importance": 0.0085},
{"id": "71227B086G","type": "place","name": "Le Champ de la Janviere","postcode": "71760","lat": "46.662612","lon": "3.925299","city": "Grury","departement": "SaÃ´ne-et-Loire", "region": "Bourgogne", "importance": 0.0062},
{"id": "71227B235U","type": "place","name": "La Janviere","postcode": "71760","lat": "46.661163","lon": "3.920123","city": "Grury","departement": "SaÃ´ne-et-Loire", "region": "Bourgogne", "importance": 0.0186},
{"id": "71233B140P","type": "place","name": "PrÃ© Janvier","postcode": "71600","lat": "46.383553","lon": "4.00356","city": "L'HÃ´pital-le-Mercier","departement": "SaÃ´ne-et-Loire", "region": "Bourgogne", "importance": 0.0040},
{"id": "71533B028N","type": "place","name": "Janvier","postcode": "71740","lat": "46.202949","lon": "4.267421","city": "Tancon","departement": "SaÃ´ne-et-Loire", "region": "Bourgogne", "importance": 0.0214},
{"id": "71584B132E","type": "place","name": "La Janviere","postcode": "71260","lat": "46.432201","lon": "4.857777","city": "VirÃ©","departement": "SaÃ´ne-et-Loire", "region": "Bourgogne", "importance": 0.0111},
{"id": "721670041J","type": "street","name": "Rue du 21 Janvier","postcode": "72300","lat": "47.794025","lon": "-0.247813","city": "Louailles","departement": "Sarthe", "region": "Pays de la Loire","importance": 0.0255 ,"housenumbers":{"1": {"lat": 47.793663,"lon": -0.249530},"10": {"lat": 47.794081,"lon": -0.248253},"11": {"lat": 47.794268,"lon": -0.248329},"12": {"lat": 47.793987,"lon": -0.248002},"13": {"lat": 47.794339,"lon": -0.248012},"14": {"lat": 47.793797,"lon": -0.247872},"15": {"lat": 47.794391,"lon": -0.247680},"16": {"lat": 47.793927,"lon": -0.247502},"17": {"lat": 47.794451,"lon": -0.247400},"18": {"lat": 47.793949,"lon": -0.247083},"19": {"lat": 47.794573,"lon": -0.247131},"2": {"lat": 47.793347,"lon": -0.248435},"20": {"lat": 47.793940,"lon": -0.246749},"21": {"lat": 47.794670,"lon": -0.246931},"22": {"lat": 47.793593,"lon": -0.246774},"23": {"lat": 47.794714,"lon": -0.246656},"25": {"lat": 47.794510,"lon": -0.246638},"27": {"lat": 47.794427,"lon": -0.246825},"29": {"lat": 47.794210,"lon": -0.247641},"3": {"lat": 47.793805,"lon": -0.249367},"31": {"lat": 47.794252,"lon": -0.247473},"33": {"lat": 47.794294,"lon": -0.247206},"35": {"lat": 47.794323,"lon": -0.246903},"37": {"lat": 47.794120,"lon": -0.246597},"39": {"lat": 47.794102,"lon": -0.246329},"4": {"lat": 47.793555,"lon": -0.248353},"41": {"lat": 47.793877,"lon": -0.246375},"43": {"lat": 47.793656,"lon": -0.246491},"5": {"lat": 47.793954,"lon": -0.249126},"6": {"lat": 47.793484,"lon": -0.248799},"7": {"lat": 47.794122,"lon": -0.248856},"8": {"lat": 47.793996,"lon": -0.248496},"9": {"lat": 47.794220,"lon": -0.248543}}},
{"id": "723360365B","type": "street","name": "AllÃ©e Hippolyte Janvier","postcode": "72300","lat": "47.852185","lon": "-0.292418","city": "Solesmes","departement": "Sarthe", "region": "Pays de la Loire","importance": 0.0343 ,"housenumbers":{"1": {"lat": 47.852496,"lon": -0.293532},"10": {"lat": 47.852171,"lon": -0.292232},"11": {"lat": 47.852271,"lon": -0.291660},"12": {"lat": 47.852201,"lon": -0.291673},"13": {"lat": 47.852245,"lon": -0.291337},"14": {"lat": 47.852178,"lon": -0.291356},"15": {"lat": 47.852221,"lon": -0.291053},"16": {"lat": 47.852157,"lon": -0.291063},"2": {"lat": 47.852460,"lon": -0.294056},"3": {"lat": 47.852459,"lon": -0.293290},"4": {"lat": 47.852395,"lon": -0.293438},"5": {"lat": 47.852418,"lon": -0.293039},"6": {"lat": 47.852348,"lon": -0.293145},"7": {"lat": 47.852311,"lon": -0.292142},"8": {"lat": 47.852132,"lon": -0.292485},"9": {"lat": 47.852299,"lon": -0.291990}}},
{"id": "72064B063M","type": "place","name": "La Borde Janvier","postcode": "72310","lat": "47.849287","lon": "0.725849","city": "La Chapelle-Huon","departement": "Sarthe", "region": "Pays de la Loire", "importance": 0.0186},
{"id": "72064B416W","type": "place","name": "Les Janviers","postcode": "72310","lat": "47.868633","lon": "0.699649","city": "La Chapelle-Huon","departement": "Sarthe", "region": "Pays de la Loire", "importance": 0.0062},
{"id": "72074B117C","type": "place","name": "Champ Janvier","postcode": "72540","lat": "48.056855","lon": "-0.196688","city": "ChemirÃ©-en-Charnie","departement": "Sarthe", "region": "Pays de la Loire", "importance": 0.0028},
{"id": "72211B335U","type": "place","name": "Le Champ Janvier","postcode": "72140","lat": "48.243651","lon": "-0.079509","city": "Mont-Saint-Jean","departement": "Sarthe", "region": "Pays de la Loire", "importance": 0.0080},
{"id": "72211C020N","type": "place","name": "Le PrÃ© Janvier","postcode": "72140","lat": "48.241874","lon": "-0.137796","city": "Mont-Saint-Jean","departement": "Sarthe", "region": "Pays de la Loire", "importance": 0.0080},
{"id": "72261B151B","type": "place","name": "Le Champ Janvier","postcode": "72240","lat": "48.057711","lon": "-0.097331","city": "RuillÃ©-en-Champagne","departement": "Sarthe", "region": "Pays de la Loire", "importance": 0.0040},
{"id": "72341B433K","type": "place","name": "Le PrÃ© Janvier","postcode": "72370","lat": "48.009354","lon": "0.458853","city": "SoulitrÃ©","departement": "Sarthe", "region": "Pays de la Loire", "importance": 0.0080},
{"id": "72377B523B","type": "place","name": "Les Janvieres","postcode": "72270","lat": "47.739495","lon": "-0.102914","city": "Villaines-sous-Malicorne","departement": "Sarthe", "region": "Pays de la Loire", "importance": 0.0104},
{"id": "742410089H","type": "street","name": "Rue du 28 Janvier 1944","postcode": "74490","lat": "46.145821","lon": "6.465289","city": "Saint-Jeoire","departement": "Haute-Savoie", "region": "RhÃ´ne-Alpes","importance": 0.2034 ,"housenumbers":{"134": {"lat": 46.145958,"lon": 6.464697},"18": {"lat": 46.145654,"lon": 6.465903},"82": {"lat": 46.145918,"lon": 6.465354}}},
{"id": "772400155Z","type": "street","name": "Rue Janvier","postcode": "77320","lat": "48.791719","lon": "3.280877","city": "Jouy-sur-Morin","departement": "Seine-et-Marne", "region": "ÃŽle-de-France","importance": 0.0075 },
{"id": "77109B007P","type": "place","name": "Le Bouquet Janvier","postcode": "77160","lat": "48.620149","lon": "3.157754","city": "Chenoise","departement": "Seine-et-Marne", "region": "ÃŽle-de-France", "importance": 0.0124},
{"id": "77240B187R","type": "place","name": "La Rue Janvier","postcode": "77320","lat": "48.791793","lon": "3.280888","city": "Jouy-sur-Morin","departement": "Seine-et-Marne", "region": "ÃŽle-de-France", "importance": 0.0494},
{"id": "77398B015S","type": "place","name": "Le Bois Janvier","postcode": "77510","lat": "48.887165","lon": "3.27855","city": "SablonniÃ¨res","departement": "Seine-et-Marne", "region": "ÃŽle-de-France", "importance": 0.0080},
{"id": "77459B054U","type": "place","name": "Le Grand Janvier","postcode": "77171","lat": "48.515966","lon": "3.370294","city": "Sourdun","departement": "Seine-et-Marne", "region": "ÃŽle-de-France", "importance": 0.0141},
{"id": "77459B079W","type": "place","name": "Le Petit Janvier","postcode": "77171","lat": "48.516776","lon": "3.373917","city": "Sourdun","departement": "Seine-et-Marne", "region": "ÃŽle-de-France", "importance": 0.0422},
{"id": "800214390V","type": "street","name": "Rue Janvier","postcode": "80000","lat": "49.881121","lon": "2.303661","city": "Amiens","departement": "Somme", "region": "Picardie","importance": 0.5640 ,"housenumbers":{"1": {"lat": 49.881141,"lon": 2.304410},"10": {"lat": 49.881205,"lon": 2.304111},"11": {"lat": 49.881112,"lon": 2.304065},"12": {"lat": 49.881200,"lon": 2.304043},"13": {"lat": 49.881107,"lon": 2.303997},"14": {"lat": 49.881194,"lon": 2.303974},"15": {"lat": 49.881101,"lon": 2.303928},"16": {"lat": 49.881188,"lon": 2.303907},"17": {"lat": 49.881095,"lon": 2.303858},"18": {"lat": 49.881182,"lon": 2.303829},"19": {"lat": 49.881089,"lon": 2.303789},"2": {"lat": 49.881228,"lon": 2.304385},"20": {"lat": 49.881176,"lon": 2.303762},"21": {"lat": 49.881084,"lon": 2.303722},"22": {"lat": 49.881171,"lon": 2.303696},"23": {"lat": 49.881078,"lon": 2.303654},"24": {"lat": 49.881165,"lon": 2.303625},"25": {"lat": 49.881072,"lon": 2.303580},"26": {"lat": 49.881159,"lon": 2.303555},"27": {"lat": 49.881067,"lon": 2.303515},"28": {"lat": 49.881154,"lon": 2.303488},"29": {"lat": 49.881061,"lon": 2.303445},"3": {"lat": 49.881135,"lon": 2.304338},"30": {"lat": 49.881148,"lon": 2.303415},"31": {"lat": 49.881056,"lon": 2.303378},"32": {"lat": 49.881142,"lon": 2.303348},"33": {"lat": 49.881050,"lon": 2.303309},"34": {"lat": 49.881136,"lon": 2.303275},"35": {"lat": 49.881044,"lon": 2.303237},"36": {"lat": 49.881130,"lon": 2.303211},"37": {"lat": 49.881038,"lon": 2.303168},"38": {"lat": 49.881125,"lon": 2.303145},"39": {"lat": 49.881033,"lon": 2.303101},"4": {"lat": 49.881223,"lon": 2.304318},"40": {"lat": 49.881120,"lon": 2.303080},"41": {"lat": 49.881027,"lon": 2.303034},"42": {"lat": 49.881115,"lon": 2.303019},"43": {"lat": 49.881021,"lon": 2.302964},"44": {"lat": 49.881109,"lon": 2.302949},"45": {"lat": 49.881016,"lon": 2.302894},"46": {"lat": 49.881103,"lon": 2.302885},"47": {"lat": 49.881010,"lon": 2.302826},"48": {"lat": 49.881098,"lon": 2.302816},"49": {"lat": 49.881001,"lon": 2.302717},"5": {"lat": 49.881129,"lon": 2.304273},"6": {"lat": 49.881217,"lon": 2.304249},"7": {"lat": 49.881123,"lon": 2.304202},"8": {"lat": 49.881211,"lon": 2.304177},"9": {"lat": 49.881118,"lon": 2.304133}}},
{"id": "831373795J","type": "street","name": "Rue Janvier","postcode": "83000","lat": "43.134235","lon": "5.913905","city": "Toulon","departement": "Var", "region": "Provence-Alpes-CÃ´te d'Azur","importance": 0.5069 ,"housenumbers":{"10": {"lat": 43.134223,"lon": 5.914857},"11": {"lat": 43.134289,"lon": 5.914554},"11bis": {"lat": 43.134463,"lon": 5.913878},"12": {"lat": 43.134220,"lon": 5.914739},"13": {"lat": 43.134217,"lon": 5.913374},"14": {"lat": 43.134216,"lon": 5.914633},"15": {"lat": 43.134203,"lon": 5.913225},"16": {"lat": 43.134213,"lon": 5.914531},"17": {"lat": 43.134189,"lon": 5.913087},"18": {"lat": 43.134210,"lon": 5.914428},"19": {"lat": 43.134175,"lon": 5.912946},"2": {"lat": 43.134237,"lon": 5.915273},"20": {"lat": 43.134206,"lon": 5.914310},"21": {"lat": 43.134163,"lon": 5.912825},"22": {"lat": 43.134202,"lon": 5.914178},"23": {"lat": 43.134150,"lon": 5.912691},"24": {"lat": 43.134198,"lon": 5.914030},"242": {"lat": 43.134255,"lon": 5.912540},"26": {"lat": 43.134147,"lon": 5.913398},"28": {"lat": 43.134131,"lon": 5.913235},"3": {"lat": 43.134299,"lon": 5.914974},"30": {"lat": 43.134113,"lon": 5.913058},"32": {"lat": 43.133987,"lon": 5.912865},"32bis": {"lat": 43.133986,"lon": 5.912882},"34": {"lat": 43.134076,"lon": 5.912673},"4": {"lat": 43.134233,"lon": 5.915176},"5": {"lat": 43.134296,"lon": 5.914859},"6": {"lat": 43.134230,"lon": 5.915074},"7": {"lat": 43.134293,"lon": 5.914755},"8": {"lat": 43.134227,"lon": 5.914970},"9": {"lat": 43.134291,"lon": 5.914648}}},
{"id": "851632600R","type": "street","name": "Rue Janvier","postcode": "85330","lat": "47.000345","lon": "-2.243492","city": "Noirmoutier-en-l'ÃŽle","departement": "VendÃ©e", "region": "Pays de la Loire","importance": 0.2110 ,"housenumbers":{"1": {"lat": 47.000339,"lon": -2.243527},"1338": {"lat": 47.000183,"lon": -2.243491},"16": {"lat": 47.000399,"lon": -2.243423},"18": {"lat": 47.000603,"lon": -2.243267},"2": {"lat": 46.999965,"lon": -2.243641}}},
{"id": "85163A013Y","type": "street","name": "Lotissement Communal Janvier","postcode": "85330","lat": "47.022935","lon": "-2.293003","city": "Noirmoutier-en-l'ÃŽle","departement": "VendÃ©e", "region": "Pays de la Loire","importance": 0.1807 ,"housenumbers":{"1": {"lat": 47.022958,"lon": -2.293099},"2": {"lat": 47.023084,"lon": -2.293025},"3": {"lat": 47.023125,"lon": -2.292926},"4": {"lat": 47.023092,"lon": -2.292841},"5": {"lat": 47.023017,"lon": -2.292852},"6": {"lat": 47.022904,"lon": -2.292973}}},
{"id": "85291B400Z","type": "place","name": "Le PrÃ© Janvier","postcode": "85480","lat": "46.609412","lon": "-1.285426","city": "Thorigny","departement": "VendÃ©e", "region": "Pays de la Loire", "importance": 0.0111},
{"id": "87108B010P","type": "place","name": "Bois de Janvier","postcode": "87330","lat": "46.088757","lon": "0.918356","city": "Nouic","departement": "Haute-Vienne", "region": "Limousin", "importance": 0.0062},
{"id": "88410B006U","type": "place","name": "La Basse de Janvier","postcode": "88700","lat": "48.390386","lon": "6.718446","city": "Sainte-Barbe","departement": "Vosges", "region": "Lorraine", "importance": 0.0040},
{"id": "88410B007V","type": "place","name": "La Basse de Janvier Sud","postcode": "88700","lat": "48.387919","lon": "6.716908","city": "Sainte-Barbe","departement": "Vosges", "region": "Lorraine", "importance": 0.0040},
{"id": "89015B039U","type": "place","name": "Buisson de l'Hate Janvier","postcode": "89270","lat": "47.568769","lon": "3.738633","city": "Arcy-sur-Cure","departement": "Yonne", "region": "Bourgogne", "importance": 0.0062},
{"id": "89073B439B","type": "place","name": "Le Grand Janvier","postcode": "89350","lat": "47.793516","lon": "3.089428","city": "Champignelles","departement": "Yonne", "region": "Bourgogne", "importance": 0.0311},
{"id": "89263B144E","type": "place","name": "Les Pres Janvier","postcode": "89470","lat": "47.842371","lon": "3.557649","city": "MonÃ©teau","departement": "Yonne", "region": "Bourgogne", "importance": 0.0219},
{"id": "915492100Z","type": "street","name": "Rue Janvier","postcode": "91700","lat": "48.653186","lon": "2.309626","city": "Sainte-GeneviÃ¨ve-des-Bois","departement": "Essonne", "region": "ÃŽle-de-France","importance": 0.2722 ,"housenumbers":{"1": {"lat": 48.652738,"lon": 2.310231},"10": {"lat": 48.653175,"lon": 2.309738},"11": {"lat": 48.653165,"lon": 2.309593},"12": {"lat": 48.653252,"lon": 2.309594},"13": {"lat": 48.653248,"lon": 2.309468},"14": {"lat": 48.653346,"lon": 2.309453},"15": {"lat": 48.653310,"lon": 2.309375},"16": {"lat": 48.653442,"lon": 2.309311},"17": {"lat": 48.653396,"lon": 2.309247},"18": {"lat": 48.653546,"lon": 2.309156},"19": {"lat": 48.653465,"lon": 2.309145},"2": {"lat": 48.652790,"lon": 2.310285},"20": {"lat": 48.653661,"lon": 2.308984},"21": {"lat": 48.653583,"lon": 2.308968},"3": {"lat": 48.652836,"lon": 2.310084},"4": {"lat": 48.652898,"lon": 2.310123},"5": {"lat": 48.652897,"lon": 2.309993},"6": {"lat": 48.653013,"lon": 2.309951},"7": {"lat": 48.652974,"lon": 2.309839},"8": {"lat": 48.653088,"lon": 2.309838},"9": {"lat": 48.653072,"lon": 2.309730}}},
{"id": "920330300M","type": "street","name": "Rue du 19 Janvier","postcode": "92380","lat": "48.851747","lon": "2.190085","city": "Garches","departement": "Hauts-de-Seine", "region": "ÃŽle-de-France","importance": 0.3103 ,"housenumbers":{"1": {"lat": 48.849112,"lon": 2.200599},"101": {"lat": 48.850541,"lon": 2.186681},"103": {"lat": 48.850752,"lon": 2.186337},"105": {"lat": 48.850236,"lon": 2.185052},"11": {"lat": 48.849345,"lon": 2.199970},"111": {"lat": 48.849536,"lon": 2.184197},"113": {"lat": 48.849249,"lon": 2.183837},"115": {"lat": 48.849040,"lon": 2.183580},"117": {"lat": 48.848789,"lon": 2.183279},"119": {"lat": 48.848392,"lon": 2.182748},"121": {"lat": 48.847834,"lon": 2.182358},"123": {"lat": 48.847709,"lon": 2.182271},"125": {"lat": 48.847375,"lon": 2.182039},"127": {"lat": 48.848522,"lon": 2.198278},"129": {"lat": 48.848544,"lon": 2.198390},"13": {"lat": 48.849392,"lon": 2.199840},"14": {"lat": 48.849380,"lon": 2.200276},"15": {"lat": 48.849424,"lon": 2.199750},"153bis": {"lat": 48.848609,"lon": 2.200224},"16": {"lat": 48.849401,"lon": 2.200216},"16bis": {"lat": 48.849464,"lon": 2.200041},"17": {"lat": 48.849471,"lon": 2.199619},"18": {"lat": 48.849559,"lon": 2.199779},"19": {"lat": 48.849538,"lon": 2.199428},"2": {"lat": 48.849191,"lon": 2.200802},"20": {"lat": 48.849672,"lon": 2.199460},"21": {"lat": 48.849774,"lon": 2.198599},"22": {"lat": 48.849710,"lon": 2.199327},"24": {"lat": 48.849732,"lon": 2.199207},"26": {"lat": 48.849766,"lon": 2.199139},"27": {"lat": 48.849951,"lon": 2.197707},"28": {"lat": 48.849860,"lon": 2.198905},"3": {"lat": 48.849150,"lon": 2.200498},"30": {"lat": 48.849913,"lon": 2.198563},"32": {"lat": 48.849967,"lon": 2.198301},"4": {"lat": 48.849238,"lon": 2.200655},"48": {"lat": 48.852016,"lon": 2.196134},"5": {"lat": 48.849208,"lon": 2.200342},"50": {"lat": 48.850940,"lon": 2.193716},"52": {"lat": 48.850993,"lon": 2.193521},"52bis": {"lat": 48.851058,"lon": 2.193285},"54": {"lat": 48.851147,"lon": 2.192962},"54bis": {"lat": 48.851247,"lon": 2.192600},"56": {"lat": 48.851399,"lon": 2.192047},"56bis": {"lat": 48.851524,"lon": 2.191582},"58": {"lat": 48.851578,"lon": 2.191382},"58bis": {"lat": 48.851879,"lon": 2.190304},"6": {"lat": 48.849285,"lon": 2.200532},"60": {"lat": 48.851939,"lon": 2.188557},"60bis": {"lat": 48.850183,"lon": 2.184778},"60ter": {"lat": 48.850470,"lon": 2.185127},"62": {"lat": 48.849444,"lon": 2.183871},"62bis": {"lat": 48.848977,"lon": 2.183302},"63": {"lat": 48.850640,"lon": 2.194298},"64": {"lat": 48.848652,"lon": 2.182912},"64ter": {"lat": 48.848292,"lon": 2.182189},"65": {"lat": 48.850654,"lon": 2.194238},"66": {"lat": 48.848128,"lon": 2.182384},"66bis": {"lat": 48.848024,"lon": 2.182305},"67": {"lat": 48.850663,"lon": 2.193896},"68": {"lat": 48.847734,"lon": 2.182105},"69": {"lat": 48.850829,"lon": 2.193285},"7": {"lat": 48.849277,"lon": 2.200186},"71": {"lat": 48.850981,"lon": 2.192900},"72": {"lat": 48.847257,"lon": 2.181770},"73": {"lat": 48.851091,"lon": 2.192636},"73bis": {"lat": 48.851148,"lon": 2.192429},"75": {"lat": 48.851257,"lon": 2.192086},"77": {"lat": 48.851318,"lon": 2.191862},"79": {"lat": 48.847237,"lon": 2.196925},"8": {"lat": 48.849327,"lon": 2.200418},"81": {"lat": 48.851460,"lon": 2.191179},"83": {"lat": 48.851512,"lon": 2.190912},"85": {"lat": 48.851598,"lon": 2.190551},"87": {"lat": 48.851643,"lon": 2.190339},"89": {"lat": 48.851701,"lon": 2.190105},"9": {"lat": 48.849305,"lon": 2.200108},"91": {"lat": 48.851769,"lon": 2.189803},"93": {"lat": 48.851836,"lon": 2.189560},"93bis": {"lat": 48.851870,"lon": 2.189149},"95": {"lat": 48.851591,"lon": 2.188401},"95bis": {"lat": 48.851466,"lon": 2.188333},"97": {"lat": 48.850947,"lon": 2.189392},"99": {"lat": 48.850274,"lon": 2.187392},"99bis": {"lat": 48.850303,"lon": 2.187095}}},
{"id": "920631050V","type": "street","name": "Rue du 19 Janvier","postcode": "92500","lat": "48.858940","lon": "2.189874","city": "Rueil-Malmaison","departement": "Hauts-de-Seine", "region": "ÃŽle-de-France","importance": 0.3167 ,"housenumbers":{"11": {"lat": 48.862588,"lon": 2.190868},"15": {"lat": 48.862418,"lon": 2.190818},"16": {"lat": 48.862581,"lon": 2.190717},"17": {"lat": 48.862327,"lon": 2.190802},"18": {"lat": 48.862460,"lon": 2.190702},"19": {"lat": 48.862151,"lon": 2.190778},"19bis": {"lat": 48.862049,"lon": 2.190764},"2": {"lat": 48.863193,"lon": 2.190525},"20": {"lat": 48.862445,"lon": 2.190074},"21": {"lat": 48.861805,"lon": 2.190723},"22": {"lat": 48.862281,"lon": 2.190674},"22bis": {"lat": 48.862299,"lon": 2.189514},"22ter": {"lat": 48.862301,"lon": 2.189696},"23": {"lat": 48.861691,"lon": 2.190699},"24": {"lat": 48.862283,"lon": 2.189878},"24bis": {"lat": 48.862263,"lon": 2.190089},"24ter": {"lat": 48.862240,"lon": 2.190287},"25": {"lat": 48.861489,"lon": 2.190678},"26": {"lat": 48.862135,"lon": 2.190651},"26bis": {"lat": 48.862049,"lon": 2.190635},"28": {"lat": 48.861964,"lon": 2.190620},"29": {"lat": 48.860704,"lon": 2.190549},"3": {"lat": 48.863024,"lon": 2.190914},"30": {"lat": 48.861905,"lon": 2.190608},"32": {"lat": 48.861827,"lon": 2.190597},"36": {"lat": 48.861661,"lon": 2.190572},"38": {"lat": 48.861572,"lon": 2.190559},"4": {"lat": 48.863112,"lon": 2.190799},"40": {"lat": 48.861462,"lon": 2.190541},"41": {"lat": 48.860219,"lon": 2.190473},"42": {"lat": 48.861350,"lon": 2.190524},"44": {"lat": 48.861200,"lon": 2.190504},"45": {"lat": 48.860074,"lon": 2.190446},"47": {"lat": 48.860000,"lon": 2.190442},"49": {"lat": 48.859716,"lon": 2.191421},"5": {"lat": 48.862831,"lon": 2.190879},"53": {"lat": 48.859790,"lon": 2.190392},"55": {"lat": 48.859737,"lon": 2.190357},"56": {"lat": 48.860722,"lon": 2.190435},"57": {"lat": 48.859553,"lon": 2.190254},"58": {"lat": 48.860552,"lon": 2.190404},"60": {"lat": 48.860377,"lon": 2.190381},"62": {"lat": 48.860184,"lon": 2.190346},"64": {"lat": 48.859741,"lon": 2.190226},"66": {"lat": 48.859586,"lon": 2.190122},"68": {"lat": 48.859590,"lon": 2.190107},"7": {"lat": 48.862667,"lon": 2.190863},"75": {"lat": 48.859306,"lon": 2.190056},"77": {"lat": 48.859178,"lon": 2.190015},"9": {"lat": 48.862592,"lon": 2.190849}}},
{"id": "95304B009K","type": "place","name": "Le Clos Janvier","postcode": "95690","lat": "49.146603","lon": "2.165821","city": "HÃ©douville","departement": "Val-d'Oise", "region": "ÃŽle-de-France", "importance": 0.0040},
{"id": "971140008Z","type": "street","name": "Chemin Alfred Janvier","postcode": "97128","lat": "16.120634","lon": "-61.571332","city": "Goyave","departement": "Guadeloupe", "region": "Guadeloupe","importance": 0.2665 ,"housenumbers":{"108": {"lat": 16.120146,"lon": -61.572040},"115": {"lat": 16.120593,"lon": -61.572128},"122": {"lat": 16.120147,"lon": -61.572030},"145": {"lat": 16.120569,"lon": -61.571851},"156": {"lat": 16.120285,"lon": -61.571561},"1617": {"lat": 16.118199,"lon": -61.572616},"1635": {"lat": 16.118199,"lon": -61.572607},"1639": {"lat": 16.118199,"lon": -61.572597},"1649": {"lat": 16.118199,"lon": -61.572588},"1659": {"lat": 16.118199,"lon": -61.572578},"166": {"lat": 16.120285,"lon": -61.571552},"1669": {"lat": 16.118199,"lon": -61.572569},"167": {"lat": 16.120725,"lon": -61.571640},"1685": {"lat": 16.117904,"lon": -61.573036},"1711": {"lat": 16.117904,"lon": -61.573026},"1755": {"lat": 16.117904,"lon": -61.573017},"1789": {"lat": 16.117236,"lon": -61.572967},"181": {"lat": 16.120988,"lon": -61.571663},"183": {"lat": 16.121260,"lon": -61.571636},"1845": {"lat": 16.117236,"lon": -61.572958},"185": {"lat": 16.121260,"lon": -61.571626},"1853": {"lat": 16.116829,"lon": -61.572872},"189": {"lat": 16.121266,"lon": -61.571322},"1903": {"lat": 16.116563,"lon": -61.572791},"1905": {"lat": 16.116285,"lon": -61.573009},"1907": {"lat": 16.116285,"lon": -61.572999},"1923": {"lat": 16.116285,"lon": -61.572990},"1937": {"lat": 16.116285,"lon": -61.572980},"197": {"lat": 16.121266,"lon": -61.571313},"21": {"lat": 16.120748,"lon": -61.572807},"216": {"lat": 16.120362,"lon": -61.571166},"227": {"lat": 16.120879,"lon": -61.571060},"234": {"lat": 16.120362,"lon": -61.571001},"246": {"lat": 16.120434,"lon": -61.570839},"256": {"lat": 16.120434,"lon": -61.570830},"272": {"lat": 16.120900,"lon": -61.570242},"31": {"lat": 16.120748,"lon": -61.572798},"49": {"lat": 16.120748,"lon": -61.572788},"59": {"lat": 16.120747,"lon": -61.572779},"98": {"lat": 16.120147,"lon": -61.572053}}},
{"id": "972290188X","type": "street","name": "Rue Roland Janvier","postcode": "97233","lat": "14.622947","lon": "-61.103452","city": "SchÅ“lcher","departement": "Martinique", "region": "Martinique","importance": 0.2943 ,"housenumbers":{"1": {"lat": 14.622282,"lon": -61.102684},"10": {"lat": 14.619094,"lon": -61.098396},"11": {"lat": 14.622328,"lon": -61.103331},"12": {"lat": 14.623138,"lon": -61.103636},"13": {"lat": 14.622737,"lon": -61.103270},"14": {"lat": 14.623289,"lon": -61.103828},"15": {"lat": 14.622824,"lon": -61.103372},"15A": {"lat": 14.622715,"lon": -61.103736},"16": {"lat": 14.623412,"lon": -61.103963},"17": {"lat": 14.622715,"lon": -61.103732},"18": {"lat": 14.623585,"lon": -61.104154},"19": {"lat": 14.622895,"lon": -61.103454},"2": {"lat": 14.622940,"lon": -61.102948},"20": {"lat": 14.621001,"lon": -61.101577},"21": {"lat": 14.622979,"lon": -61.103551},"23": {"lat": 14.623055,"lon": -61.103639},"25": {"lat": 14.622891,"lon": -61.103780},"27": {"lat": 14.623196,"lon": -61.103819},"27A": {"lat": 14.623231,"lon": -61.104056},"29": {"lat": 14.623289,"lon": -61.104183},"29bis": {"lat": 14.623288,"lon": -61.104170},"3": {"lat": 14.622301,"lon": -61.102951},"33": {"lat": 14.623549,"lon": -61.104242},"3bis": {"lat": 14.622254,"lon": -61.103095},"4": {"lat": 14.622694,"lon": -61.103112},"5": {"lat": 14.622501,"lon": -61.103008},"6": {"lat": 14.622802,"lon": -61.103236},"6bis": {"lat": 14.623183,"lon": -61.103279},"7": {"lat": 14.622533,"lon": -61.103046},"8": {"lat": 14.622950,"lon": -61.103411},"9": {"lat": 14.622612,"lon": -61.103124}}}]